centroid_name,Latitude_x,Longitude_x,MRT.Name,Latitude_y,Longitude_y,time_difference,suitability,Weighted_Score
WOODLANDS PARK,1.416601020587262,103.75936800711666,KRANJI MRT STATION,1.425086981,103.7621375,4.133333333333336,5.82520837970864,5.694252593307117
56 JALAN SENYUM,1.3232635413132667,103.9144924273122,KEMBANGAN MRT STATION,1.321038134,103.9129479,2.4333333333333336,7.448327322472329,6.839395191311197
63A JALAN LIM TAI SEE,1.3213040548093986,103.79203541849168,HOLLAND VILLAGE MRT STATION,1.312240296,103.7963991,15.433333333333334,7.200209076817706,11.5523005947875
BRADDELL HEIGHTS ESTATE,1.3478599940641125,103.86470096502856,LORONG CHUAN MRT STATION,1.351639278,103.8639457,8.283333333333335,7.543288714233084,9.100764304719801
THOMSON HILLS ESTATE,1.3806291442438563,103.83277097403868,LENTOR MRT STATION,1.38550658,103.8357438,4.616666666666666,6.760945757997218,7.080823273064442
EAST VIEW GARDEN,1.3449626664098226,103.96153368099714,UPPER CHANGI MRT STATION,1.341739774,103.9614728,1.6166666666666665,5.668982553651381,5.066652709587772
LAKEHOLMZ,1.3429906305323671,103.71682839084389,LAKESIDE MRT STATION,1.344259115,103.7209491,6.283333333333333,5.023772241992882,6.436151126927639
BELGRAVIA VILLAS,1.380342877426117,103.8661956034572,FERNVALE LRT STATION,1.391885892,103.8763086,15.866666666666667,6.882463094919624,11.316437142602368
52C WAK HASSAN DRIVE,1.4609991524931307,103.83940653177515,CANBERRA MRT STATION,1.443076641,103.8297026,25.516666666666676,7.54255456066484,15.627310315198542
BELLE VUE RESIDENCES,1.2969982183665063,103.84211580215772,DHOBY GHAUT MRT STATION,1.298655224,103.8461942,6.9,6.174286830793278,7.398829464634623
MANDARIN PARK,1.345119307274088,103.77164870485284,BEAUTY WORLD MRT STATION,1.34090149,103.7757467,4.15,7.308461201227531,7.214968960982026
90 SENNETT AVENUE,1.3189270147174623,103.93897006214624,TANAH MERAH MRT STATION,1.327310982,103.9464517,-3.383333333333333,6.969487315948199,3.4414565194252265
38 CEYLON ROAD,1.3063466700950923,103.90254174009038,EUNOS MRT STATION,1.319783549,103.9032258,8.533333333333335,7.445403168836411,8.735255868402463
17J JALAN HOCK CHYE,1.3598423712112435,103.88989767417448,KOVAN MRT STATION,1.360179171,103.8850649,6.299999999999999,5.375667111407605,6.684133689126083
42 JALAN MERLIMAU,1.3242605134811591,103.84008451823824,NOVENA MRT STATION,1.320440791,103.8438256,3.9,6.562048162736201,6.593238530188961
CHELSEA VILLAGE,1.278250488759114,103.78999488180052,PASIR PANJANG MRT STATION,1.276213522,103.7913503,1.6333333333333329,7.088197665120743,6.035291465429928
PAVILION PARK,1.3692343810365943,103.75214076080329,TECK WHYE LRT STATION,1.376684679,103.7537122,7.266666666666666,5.770345149876494,7.202742786567862
FABER HILLS,1.3205648683556352,103.75685324426954,CLEMENTI MRT STATION,1.315116253,103.7651915,11.4,6.00390625,9.070125
SOO CHOW GARDEN,1.3535563028820148,103.83048472176228,UPPER THOMSON MRT STATION,1.354416434,103.8328985,1.5,6.968302304657762,6.00444184372621
2A JALAN MELOR,1.331559754032741,103.88395292261411,MATTAR MRT STATION,1.326876715,103.8832475,4.366666666666667,7.603471098690983,7.621043545619454
118 COVE DRIVE,1.2389458633314587,103.83281169946804,HARBOURFRONT MRT STATION,1.265389384,103.8215302,18.883333333333333,,
SPRINGLEAF GARDEN,1.39953272168546,103.82402237229014,SPRINGLEAF MRT STATION,1.397581061,103.8178569,7.216666666666666,7.727353727353727,8.87014964854965
THE RIVERINA,1.3803973900022246,103.9462133598969,PASIR RIS MRT STATION,1.37300805,103.9492651,4.5500000000000025,7.722426707163264,7.512341365730613
CORONATION VILLAGE,1.3231672930657228,103.8043823664824,TAN KAH KEE MRT STATION,1.326392241,103.8065482,4.466666666666667,7.427919856654179,7.49240255199001
SOUTH UNION PARK,1.316171619940868,103.92540339938851,KEMBANGAN MRT STATION,1.321038134,103.9129479,8.433333333333334,7.806265231797147,9.02094551877105
40 CHUAN PLACE,1.361233026417609,103.86771900957037,LORONG CHUAN MRT STATION,1.351639278,103.8639457,11.633333333333336,6.368571701173553,9.422990694272178
25A PONGGOL TWENTY-FOURTH AVENUE,1.4188870676491372,103.90915565533363,PUNGGOL POINT LRT STATION,1.41684852,103.9066508,3.3166666666666678,7.435886402753873,7.095175788869765
120S TANAH MERAH BESAR LANE,1.359280572761867,103.97571765365927,CHANGI AIRPORT MRT STATION,1.357478974,103.9878836,40.23333333333334,8.0,21.452333333333335
4 STARLIGHT ROAD,1.313924550998134,103.85341638537416,FARRER PARK MRT STATION,1.3131403,103.8547547,1.95,8.0,7.019000000000001
SEMBAWANG SPRINGS ESTATE,1.4384310054882588,103.8286479234576,CANBERRA MRT STATION,1.443076641,103.8297026,2.216666666666669,7.211635190281864,6.015174818892159
WESTVILLE,1.353326825327722,103.69844602079726,PIONEER MRT STATION,1.337587011,103.6973216,17.666666666666668,7.378458414417463,12.485033398200638
LUCKY HILL,1.3251158457495726,103.94894253461744,TANAH MERAH MRT STATION,1.327310982,103.9464517,6.183333333333332,5.813168112746274,6.8302678235303524
THE SHAUGHNESSY,1.4170375705616498,103.84668844197296,KHATIB MRT STATION,1.41738337,103.8329799,12.833333333333336,6.875707488104183,10.157899323816682
86A FERNHILL CLOSE,1.3119085296076347,103.8230110771064,NAPIER MRT STATION,1.306782234,103.8189568,10.283333333333337,6.926429224982208,9.203076713319101
107 HUA GUAN AVENUE,1.341800561219109,103.7854322468049,KING ALBERT PARK MRT STATION,1.335661613,103.7833991,11.083333333333332,6.458289237564993,9.328764723385326
29 LORONG 32 GEYLANG,1.313017677064032,103.8872142357648,DAKOTA MRT STATION,1.308547984,103.8890647,4.966666666666667,6.867820035287199,7.316522694896427
PARRY PARK,1.366668287414238,103.87806867339744,KOVAN MRT STATION,1.360179171,103.8850649,9.816666666666666,7.448021124768163,9.595083566481197
390B PASIR PANJANG ROAD,1.291585950421792,103.7722801705502,KENT RIDGE MRT STATION,1.293536986,103.7845724,14.633333333333333,7.522957461174881,11.413409806758626
HAZEL PARK TERRACE,1.3718184873155217,103.76559019138,CASHEW MRT STATION,1.369815449,103.7644392,3.2500000000000004,5.9212527654867255,5.92220221238938
14 PAYA LEBAR CRESCENT,1.3496440184552208,103.88148552473444,BARTLEY MRT STATION,1.342501178,103.8801779,9.68333333333333,5.921397379912663,8.234651237263463
WOODHAVEN,1.4303957689944466,103.7836700776438,WOODLANDS MRT STATION,1.436057617,103.7879388,6.200000000000003,7.0397996273557535,7.770839701884604
VILLA VERDE,1.3912073791833897,103.75057972288384,YEW TEE MRT STATION,1.397297711,103.7473577,9.216666666666669,7.346921371311616,9.24020376371596
GREEN SPRINGS,1.3870193423917911,103.8764298729307,FERNVALE LRT STATION,1.391885892,103.8763086,-4.783333333333335,7.567817519595832,3.5903206823433313
10 CHATSWORTH PARK,1.2974406444129436,103.82108972058792,ORCHARD MRT STATION,1.302422248,103.8238685,11.633333333333333,7.243386243386244,10.097442328042328
29 LORONG KISMIS,1.337736450101481,103.77009659015964,BEAUTY WORLD MRT STATION,1.34090149,103.7757467,7.3,6.806496612196094,8.074597289756875
LE CONNEY PARK,1.3125210953871669,103.91212153606556,KEMBANGAN MRT STATION,1.321038134,103.9129479,3.633333333333333,7.947070506454817,7.300989738497187
BEAUTY GARDEN,1.3921769599145275,103.9008110624932,COMPASSVALE LRT STATION,1.394493045,103.9004925,2.8666666666666663,6.6397245011647925,6.319846267598501
SENNETT ESTATE,1.332510374860398,103.87132045382036,POTONG PASIR MRT STATION,1.331879714,103.8690579,1.1833333333333331,7.243780739895929,6.1597579252500765
CORAL PARK,1.353378528049201,103.84331325666524,MARYMOUNT MRT STATION,1.348707263,103.8394231,8.283333333333331,7.668687401159725,9.261683254261113
PRESIDENT GARDENS,1.3863526163980389,103.8374104206586,LENTOR MRT STATION,1.38550658,103.8357438,1.9666666666666668,8.0,7.134466666666667
57 KHEAM HOCK ROAD,1.3271135413671489,103.82057336781185,BOTANIC GARDENS MRT STATION,1.322113736,103.8149845,-12.68333333333333,7.296132699655205,0.250672257944275
1 WALTON ROAD,1.300195781686011,103.89307545636744,DAKOTA MRT STATION,1.308547984,103.8890647,8.433333333333334,8.0,9.467133333333333
MOUNT SINAI,1.3160006937633266,103.78012181557916,DOVER MRT STATION,1.311405293,103.7786378,-5.383333333333331,5.639842287070099,1.7591736489897083
CABANA,1.3883674089435187,103.85576072032492,YIO CHU KANG MRT STATION,1.381498825,103.8451707,12.816666666666665,5.384321377886724,8.787923768976045
112 BUKIT TERESA ROAD,1.276109748439469,103.82543108590076,TIONG BAHRU MRT STATION,1.286102536,103.8274451,0.9000000000000021,6.220500595947558,4.402252414664621
HILLCREST PARK,1.3350222894908823,103.80718740491612,TAN KAH KEE MRT STATION,1.326392241,103.8065482,10.583333333333332,6.526165931973723,8.859925950955674
26 LORONG 104 CHANGI,1.3156612153560117,103.90218049961896,EUNOS MRT STATION,1.319783549,103.9032258,-0.8666666666666671,6.857542420287151,4.806367269563054
CHANGI HEIGHTS,1.3631127480320235,103.97165033861512,CHANGI AIRPORT MRT STATION,1.357478974,103.9878836,29.46666666666667,7.974477927395021,17.136049008582685
SERANGOON GARDEN ESTATE,1.3667802610044684,103.86583214385008,LORONG CHUAN MRT STATION,1.351639278,103.8639457,13.716666666666663,7.165127058746178,10.756768313663608
114 JALAN CHEMPAKA KUNING,1.332759156205627,103.9486514749848,TANAH MERAH MRT STATION,1.327310982,103.9464517,6.616666666666666,7.566555218890397,8.480510841778985
15 HOLLAND HILL,1.3096196907901163,103.80044016191984,HOLLAND VILLAGE MRT STATION,1.312240296,103.7963991,6.133333333333334,5.935841278021128,6.940581234977289
20 JUBILEE ROAD,1.3057541921742006,103.76601023755128,CLEMENTI MRT STATION,1.315116253,103.7651915,-32.66666666666667,6.741952866791206,-9.348304373233706
FUYONG ESTATE,1.358665686256995,103.76814331189205,HILLVIEW MRT STATION,1.362344868,103.7674183,0.2666666666666666,7.357227289961416,5.873341216703467
WATERFRONT WAVES,1.337851571386611,103.9294147987098,BEDOK RESERVOIR MRT STATION,1.33660783,103.9322346,-0.5,6.118749330763466,4.355999464610774
TAI HWAN GARDEN,1.3575748576528897,103.86156738337507,LORONG CHUAN MRT STATION,1.351639278,103.8639457,7.899999999999999,6.388949010121588,8.03355920809727
11A JALAN HAJI SALAM,1.320436712092076,103.95307713428257,BEDOK MRT STATION,1.320401487,103.9571838,10.25,7.264382016436589,9.798705613149274
HORIZON GREEN,1.3757908319430627,103.83276481718168,MAYFLOWER MRT STATION,1.371463188,103.8365678,5.95,7.511200081086559,8.148960064869248
97 YUNNAN DRIVE 3,1.3371371077831185,103.69153200138288,PIONEER MRT STATION,1.337587011,103.6973216,6.066666666666666,7.93550846165574,8.58707343599126
JALAN KAYU ESTATE,1.3964939890159036,103.87337971932882,THANGGAM LRT STATION,1.397318156,103.8756352,4.699999999999999,6.983490566037736,7.327992452830189
HILLVIEW GARDEN ESTATE,1.359690263530062,103.76208564928636,HILLVIEW MRT STATION,1.362344868,103.7674183,5.983333333333334,7.294519630175534,8.03554903747376
TAI KENG VILLAS,1.3471210956035349,103.88205335451408,BARTLEY MRT STATION,1.342501178,103.8801779,9.116666666666667,5.853875398577386,8.036766985528576
SHAMROCK PARK,1.3254400782660856,103.79481947845022,SIXTH AVENUE MRT STATION,1.330857645,103.7969068,6.933333333333333,5.549500577563363,7.006333795384024
PEOPLE'S GARDEN,1.3684161557458805,103.88896595458208,HOUGANG MRT STATION,1.371292266,103.8923805,1.583333333333334,6.347232961449243,5.475119702492728
HOCK SWEE HILL,1.386865368681909,103.86405185133285,FERNVALE LRT STATION,1.391885892,103.8763086,16.21666666666667,6.527408761847899,11.169393676144988
113 HIGHLAND ROAD,1.3598625244205305,103.8809148997139,KOVAN MRT STATION,1.360179171,103.8850649,3.6000000000000005,6.904623858530223,6.838699086824179
260 OCEAN DRIVE,1.2483307630713198,103.84490677628352,TANJONG PAGAR MRT STATION,1.276568292,103.8460067,55.66666666666667,,
RIZ HAVEN,1.3796066813455992,103.9628126942197,PASIR RIS MRT STATION,1.37300805,103.9492651,13.633333333333333,7.962693958402113,11.419688500055024
MONTROSE TERRACE,1.321831180299595,103.83629017905425,NOVENA MRT STATION,1.320440791,103.8438256,6.050000000000001,6.772476289463428,7.548381031570743
ONE-TWO-SIX CAIRNHILL ART CENTRE,1.3078093119175944,103.837652620218,NEWTON MRT STATION,1.312318922,103.8379846,9.033333333333331,5.544246587724849,7.774593666739135
40 LORONG 6 GEYLANG,1.310262916084899,103.87658068445631,KALLANG MRT STATION,1.31148891,103.8713865,7.683333333333334,7.840023847376789,9.173352411234765
HIGHGATE PARK,1.3401386790596097,103.7659975397597,BEAUTY WORLD MRT STATION,1.34090149,103.7757467,9.849999999999998,7.108402900493572,9.272122320394859
HARVEY VIEW,1.339998747891644,103.95457213826376,SIMEI MRT STATION,1.343197079,103.9533772,-1.466666666666666,7.686746987951807,5.1995309236947795
THE INGLEWOOD,1.361442640852855,103.82967835725042,BRIGHT HILL MRT STATION,1.363846766,103.8338992,5.916666666666667,5.686339248865044,6.700338065758702
GOODLINK PARK,1.427091447215155,103.82518294734936,YISHUN MRT STATION,1.429443085,103.835005,9.033333333333331,6.178133635655071,8.12964024185739
MASJID TAHA,1.3134996836578263,103.89809548103662,PAYA LEBAR MRT STATION,1.31719912,103.8923649,5.15,7.200549580707822,7.611439664566258
THE MORNINGTON,1.3259415093834075,103.86392200132067,BOON KENG MRT STATION,1.319939577,103.8620527,3.8500000000000014,7.460067838421216,7.278654270736974
SEASIDE PARK,1.3095197416801578,103.92010624929908,KEMBANGAN MRT STATION,1.321038134,103.9129479,11.166666666666666,7.932791824970524,10.419700126643086
BLISS VILLE,1.3236372509573011,103.9090830960463,KEMBANGAN MRT STATION,1.321038134,103.9129479,3.6000000000000005,7.397531521932161,7.16362521754573
CHURCH OF SAINT BERNADETTE,1.2951679984053348,103.8305613678419,GREAT WORLD MRT STATION,1.293316457,103.8339066,4.433333333333334,6.388132164531355,6.622639064958419
WATTEN ESTATE,1.3286446152379805,103.80813072047556,TAN KAH KEE MRT STATION,1.326392241,103.8065482,5.383333333333335,6.26856278366112,6.73218356026223
CLEMENTI GREEN,1.3234538562732356,103.77351745930972,CLEMENTI MRT STATION,1.315116253,103.7651915,10.8,6.276609368774546,8.931087495019638
WESTLAKE GARDENS,1.3440071633447268,103.83740002864091,MARYMOUNT MRT STATION,1.348707263,103.8394231,3.716666666666666,5.74603021845828,5.802690841433291
THE INTERLACE,1.2823633652133413,103.80281235602114,LABRADOR PARK MRT STATION,1.272227051,103.8027445,12.9,6.906120175458955,10.444296140367165
LUXUS HILLS,1.3806794076128055,103.874239174585,FERNVALE LRT STATION,1.391885892,103.8763086,10.233333333333334,7.362616567760687,9.317826587541884
SUMMER GREEN,1.3269941725611707,103.84988734898884,TOA PAYOH MRT STATION,1.332596728,103.8475773,-7.549999999999997,6.610195308194127,1.3755562465553028
FORESTVILLE,1.4320230193468555,103.79948334428713,WOODLANDS SOUTH MRT STATION,1.427488114,103.7927299,12.116666666666667,7.091523605150214,10.314485550786838
KIM LIN PARK,1.3016003809556675,103.82834857265608,ORCHARD MRT STATION,1.302422248,103.8238685,5.783333333333333,6.915412865774197,7.581063625952692
36 JALAN RINDU,1.3455592283644315,103.8771826174814,BARTLEY MRT STATION,1.342501178,103.8801779,7.050000000000001,6.934753891218196,8.259203112974557
4 JALAN TANAH PUTEH,1.3154968296676028,103.93029436838448,KEMBANGAN MRT STATION,1.321038134,103.9129479,-0.5166666666666657,7.5450648570909955,4.758985219006131
177 SPRINGSIDE AVENUE,1.4059719372187545,103.8231157500477,SPRINGLEAF MRT STATION,1.397581061,103.8178569,9.316666666666668,6.559491828967989,8.62546012984106
SERANGOON GARDEN ESTATE,1.363654845210467,103.87149586213847,SERANGOON MRT STATION,1.350633615,103.8727717,11.550000000000002,5.768422023425252,8.910337618740204
BUKIT LOYANG ESTATE,1.3619773682842653,103.96808539671063,TAMPINES EAST MRT STATION,1.356191483,103.9546345,10.833333333333332,7.224118012974318,9.616827743712788
MAYFLOWER GARDENS,1.3720153013011451,103.84006504021464,MAYFLOWER MRT STATION,1.371463188,103.8365678,4.366666666666667,6.652868969454753,6.84876184223047
ELIAS TERRACE,1.372592589354113,103.9418354495314,PASIR RIS MRT STATION,1.37300805,103.9492651,4.266666666666666,7.548369720206597,7.289962442831944
TREVOSE PARK,1.3246167988332689,103.82551579449722,STEVENS MRT STATION,1.320065558,103.8260244,4.733333333333333,6.405753082008219,6.873335798939909
EWART PARK,1.3256099474291432,103.7839705880787,KING ALBERT PARK MRT STATION,1.335661613,103.7833991,20.05,7.995756818556848,14.076605454845481
CHARLTON PARK,1.3541102235754043,103.88057727691928,KOVAN MRT STATION,1.360179171,103.8850649,8.483333333333333,7.535397789505128,9.203051564937436
24 JALAN HAROM SETANGKAI,1.3203344941504862,103.81287672128629,BOTANIC GARDENS MRT STATION,1.322113736,103.8149845,-16.1,6.864782449106362,-1.356057763221052
OPERA ESTATE,1.320553890276538,103.92065283584672,KEMBANGAN MRT STATION,1.321038134,103.9129479,5.383333333333333,7.305841924398624,7.795806872852234
PHOENIX HEIGHTS,1.37714685062571,103.75939380801536,PHOENIX LRT STATION,1.378615451,103.7579956,5.916666666666667,6.507420425698105,7.355003007225151
33L CAMBRIDGE ROAD,1.314240629840023,103.84709000494632,NOVENA MRT STATION,1.320440791,103.8438256,6.149999999999999,6.654301696928028,7.496641357542423
SWISS CLUB PARK,1.3357732123432449,103.78927462104885,KING ALBERT PARK MRT STATION,1.335661613,103.7833991,21.35,6.153076463560335,13.20166117084827
MERA GARDENS,1.3715120988021003,103.77311093269512,PENDING LRT STATION,1.376135743,103.7712612,5.533333333333333,5.40218948229998,6.389684919173318
21A CHAPEL CLOSE,1.3080780562850736,103.90615038097692,EUNOS MRT STATION,1.319783549,103.9032258,-4.483333333333334,7.753700099158984,3.4982267459938536
CARIBBEAN AT KEPPEL BAY,1.2661050219902887,103.81536587687472,HARBOURFRONT MRT STATION,1.265389384,103.8215302,5.366666666666666,5.429285007233687,6.321894672453617
PARADISE PALMS,1.3098439629798673,103.89516830860936,DAKOTA MRT STATION,1.308547984,103.8890647,5.199999999999999,8.0,8.3398
SENNETT ESTATE,1.33175339670753,103.87722994412388,MATTAR MRT STATION,1.326876715,103.8832475,8.95,7.45687952600395,9.329903620803162
BLAIR PLAIN CONSERVATION AREA,1.2762634310158238,103.83678739471937,OUTRAM PARK MRT STATION,1.279739707,103.8395135,3.7666666666666666,6.33345607187569,6.453831524167219
VAUGHAN GARDEN,1.3470773384483872,103.87047093200276,SERANGOON MRT STATION,1.350633615,103.8727717,5.3500000000000005,5.398234428641491,6.308187542913193
KING'S GARDEN,1.3173428645603376,103.80327236393396,FARRER ROAD MRT STATION,1.317439152,103.8073792,4.1000000000000005,5.978995654273298,6.304596523418638
EASTWOOD VILLE,1.322116541635992,103.95695165636846,BEDOK MRT STATION,1.320401487,103.9571838,9.45,6.900723249057303,9.170178599245842
24 SPRINGSIDE GREEN,1.4035673563086484,103.8195209576741,SPRINGLEAF MRT STATION,1.397581061,103.8178569,6.066666666666666,6.085852478839178,7.041748649738009
COMFORT GARDEN,1.3772934061163695,103.7466258610853,KEAT HONG LRT STATION,1.378603251,103.7490557,-3.083333333333333,7.553568453207442,4.57832142923262
ORCHID VILLAGE,1.3321254148358628,103.79998709307344,SIXTH AVENUE MRT STATION,1.330857645,103.7969068,7.699999999999999,6.735935370839011,8.365148296671208
THOMSON PARK,1.3548750915259,103.83539670720786,UPPER THOMSON MRT STATION,1.354416434,103.8328985,3.966666666666667,6.764351967911758,6.891148240996074
27 MIMOSA PLACE,1.3845635150723927,103.85999304085549,YIO CHU KANG MRT STATION,1.381498825,103.8451707,2.3666666666666742,7.364001829261809,5.483868130076117
LENTOR VILLAS,1.390308664916284,103.8348889087312,LENTOR MRT STATION,1.38550658,103.8357438,6.05,7.842068760527098,8.52285500842168
WEST COAST GARDENS,1.3129439806793353,103.7580740818912,CLEMENTI MRT STATION,1.315116253,103.7651915,-27.816666666666663,6.923805194678241,-7.005622510924071
SERANGOON SECONDARY SCHOOL,1.3742897788053947,103.90248537600635,KANGKAR LRT STATION,1.383959117,103.9022254,10.466666666666669,6.396162820845217,9.02399692334284
15 HOW SUN AVENUE,1.34470883227492,103.8806925166405,BARTLEY MRT STATION,1.342501178,103.8801779,6.266666666666667,7.17742260764344,8.08340475278142
442 JOO CHIAT PLACE,1.315484378144803,103.91270494560152,KEMBANGAN MRT STATION,1.321038134,103.9129479,-0.0999999999999996,7.600161320933762,5.68272905674701
10 JALAN ARIF,1.3669953799488448,103.88423324805616,KOVAN MRT STATION,1.360179171,103.8850649,6.083333333333333,7.138110214686177,7.936421505082276
Q BAY RESIDENCES,1.3511871153395747,103.92791426560464,TAMPINES WEST MRT STATION,1.345633658,103.9384925,12.55,7.172016513585304,10.436613210868245
37 FORD AVENUE,1.3138681782657085,103.79509899027504,HOLLAND VILLAGE MRT STATION,1.312240296,103.7963991,4.383333333333333,6.01842593915155,6.454474084654573
D' MANOR,1.3303952790539797,103.94618672775968,TANAH MERAH MRT STATION,1.327310982,103.9464517,4.350000000000001,7.337318462649443,7.522854770119555
16 SUNSET TERRACE,1.3252679312001727,103.76657519634692,CLEMENTI MRT STATION,1.315116253,103.7651915,6.75,6.3526710287838295,7.313536823027064
22 SELETAR CRESCENT,1.3861883346369468,103.8715199506082,FERNVALE LRT STATION,1.391885892,103.8763086,-1.5666666666666664,7.687212696708386,4.903103490700042
SHAMROCK PARK,1.3230149071722097,103.79741719037376,SIXTH AVENUE MRT STATION,1.330857645,103.7969068,10.05,7.253421845058857,9.554337476047086
SEMBAWANG HILLS ESTATE,1.376218861891792,103.827783958022,MAYFLOWER MRT STATION,1.371463188,103.8365678,10.916666666666668,6.930985404515391,9.54525499027898
THE MEADOWS,1.3990216656266123,103.91511715332368,KADALOOR LRT STATION,1.399509106,103.916575,1.25,7.92320057153063,6.724760457224504
HENRY PARK,1.3127543850603405,103.78441397773597,DOVER MRT STATION,1.311405293,103.7786378,-1.25,6.870727529972448,4.513182023977958
TEACHER'S HOUSING ESTATE,1.3809815045412623,103.82964193810872,LENTOR MRT STATION,1.38550658,103.8357438,7.316666666666666,6.865996713919989,8.149664037802658
CLOVER PARK,1.349826827701755,103.84368317489034,MARYMOUNT MRT STATION,1.348707263,103.8394231,4.916666666666667,7.711299892125134,7.895106580366774
52 WILKINSON ROAD,1.302884972105844,103.89168060935548,DAKOTA MRT STATION,1.308547984,103.8890647,-0.8333333333333321,7.513413947037662,5.264797824296798
24S LIM TUA TOW ROAD,1.354825891909779,103.87631192355111,SERANGOON MRT STATION,1.350633615,103.8727717,5.783333333333332,6.047381546134664,6.966438570241065
FRANKEL ESTATE,1.314456315803721,103.91719189172169,KEMBANGAN MRT STATION,1.321038134,103.9129479,1.8666666666666671,7.951458760447879,6.6676336750249705
SERANGOON GARDEN ESTATE,1.364404145628798,103.86116246776652,ANG MO KIO MRT STATION,1.369428557,103.8494552,10.05,5.694448987008268,8.027508749894427
SELEGIE COURT,1.3029794835959805,103.8500241792781,ROCHOR MRT STATION,1.303852185,103.8527694,3.4333333333333336,7.0077912441256505,6.869966328633854
21 TAMAN BEDOK,1.32516575774765,103.95358433835052,BEDOK MRT STATION,1.320401487,103.9571838,15.333333333333332,6.737090264418544,11.263205544868168
EDEN PARK,1.3314405401314937,103.79142023542668,SIXTH AVENUE MRT STATION,1.330857645,103.7969068,6.033333333333333,6.624739231807584,7.5689247187794
12A JALAN RIMAU,1.329081346564808,103.90760927881576,KAKI BUKIT MRT STATION,1.33496736,103.9084593,7.716666666666667,6.61861770730597,8.151160832511444
16B ROBIN CLOSE,1.3181452162769776,103.8271392027576,STEVENS MRT STATION,1.320065558,103.8260244,2.2833333333333328,7.033182904167772,6.366079656667551
GREENBANK PARK,1.3479548489760649,103.78929050015633,KING ALBERT PARK MRT STATION,1.335661613,103.7833991,25.883333333333336,6.97211570907083,15.400220967923353
SHEPHERD'S HILL ESTATE,1.2911185728504784,103.80599972755508,QUEENSTOWN MRT STATION,1.294550852,103.8060772,3.6666666666666665,6.413597178683386,6.396144409613376
SUNNY TERRACE,1.3131949158789302,103.92519902649306,KEMBANGAN MRT STATION,1.321038134,103.9129479,12.783333333333331,7.925728452081777,10.945116094998756
MANDAI GARDEN,1.4034140309114735,103.81482444010936,SPRINGLEAF MRT STATION,1.397581061,103.8178569,4.049999999999999,5.989080079417604,6.181464063534083
THOMSON VIEW CONDOMINIUM,1.3579174258579088,103.82883037711584,UPPER THOMSON MRT STATION,1.354416434,103.8328985,2.1499999999999995,5.192679157813405,4.812943326250725
65A PASIR PANJANG HILL,1.2818674200127451,103.78501760427264,HAW PAR VILLA MRT STATION,1.281956887,103.781989,9.383333333333333,5.419602131166393,7.907815038266448
LORNIE 18,1.3377275981908567,103.8199729247406,BOTANIC GARDENS MRT STATION,1.322113736,103.8149845,-34.099999999999994,6.591541808160918,-10.314024914560978
SUN SAILS,1.442124464812284,103.82203008077524,SEMBAWANG MRT STATION,1.449050822,103.8200461,9.816666666666666,6.720521771082124,9.021484083532366
CENTURY WOODS,1.4277777421978468,103.77666620721564,MARSILING MRT STATION,1.432521149,103.7740746,6.616666666666667,5.874479437792817,7.146450216900921
56 LORONG 25A GEYLANG,1.3153658992632251,103.8831764568889,ALJUNIED MRT STATION,1.316432612,103.882906,1.416666666666667,7.68375325803649,6.69206927309586
SEMBAWANG STRAITS ESTATE,1.4573688213420664,103.83659265900384,CANBERRA MRT STATION,1.443076641,103.8297026,20.450000000000003,7.575409871290745,13.719727897032598
RICH EAST GARDEN,1.313436921611622,103.93721775946028,TANAH MERAH MRT STATION,1.327310982,103.9464517,11.35,6.414876335598417,8.993301068478734
3C MARTIA ROAD,1.3078852355043005,103.9106244446323,KEMBANGAN MRT STATION,1.321038134,103.9129479,14.5,7.934331986465622,11.669265589172499
CASHEW VILLAS,1.3699314492502712,103.76898512645164,CASHEW MRT STATION,1.369815449,103.7644392,5.733333333333333,7.753242291505626,8.182727166537836
OPERA ESTATE,1.32158587645523,103.92469639230472,KEMBANGAN MRT STATION,1.321038134,103.9129479,9.016666666666667,7.616984826235928,9.39405452765541
BARTLEY SECONDARY SCHOOL,1.33978327578662,103.88314253325352,BARTLEY MRT STATION,1.342501178,103.8801779,1.9833333333333345,6.286736693153369,5.583922687856029
EASTERN GROVE,1.3240107832450905,103.94632340604475,TANAH MERAH MRT STATION,1.327310982,103.9464517,-9.216666666666669,6.7561248600920285,1.0246332214069556
CHARLTON PARK,1.3563312248916206,103.88704447253296,KOVAN MRT STATION,1.360179171,103.8850649,4.916666666666666,7.565495947510612,7.704863424675156
SANCTUARY GREEN,1.2967756930162893,103.87157814752524,STADIUM MRT STATION,1.302812468,103.8753377,8.866666666666667,7.927519315213162,9.551882118837197
WEST COAST GARDENS,1.3167046471721355,103.7547112563064,CLEMENTI MRT STATION,1.315116253,103.7651915,-16.08333333333333,6.878001425192866,-2.2457321931790384
10 COVE WAY,1.2421068133330435,103.83889625442708,HARBOURFRONT MRT STATION,1.265389384,103.8215302,33.9,7.068507727387889,18.275745899839542
MING TECK PARK,1.3196226035869865,103.7891955460952,HOLLAND VILLAGE MRT STATION,1.312240296,103.7963991,10.85,6.227304405237867,9.006443524190294
LOYANG VILLAS,1.3620840083209105,103.96453078894004,TAMPINES EAST MRT STATION,1.356191483,103.9546345,7.283333333333335,6.434932142194569,7.6336790470889895
BURGUNDY HILL,1.3393333601066526,103.76111755837688,BEAUTY WORLD MRT STATION,1.34090149,103.7757467,16.300000000000004,7.58878268254341,12.129294765372316
PUNGGOL WALK,1.4059356272037424,103.90082667407424,PUNGGOL LRT STATION,1.405194701,103.9024119,1.4666666666666668,7.50944851523332,6.451625478853323
1 RIVIERA DRIVE,1.316054824585736,103.94345731121116,TANAH MERAH MRT STATION,1.327310982,103.9464517,2.883333333333333,6.786696925740489,5.955490873925725
GOLDENHILL VILLAS,1.3546249073637953,103.86170745369776,LORONG CHUAN MRT STATION,1.351639278,103.8639457,5.283333333333332,6.5060890886800165,7.110804604277346
FUHUA PRIMARY SCHOOL,1.3361982671320622,103.73719778972544,JURONG EAST MRT STATION,1.33315262,103.7422865,6.066666666666667,5.5126821748878925,6.685612406576982
64 HIGHLAND ROAD,1.3577994050139723,103.87891209138536,KOVAN MRT STATION,1.360179171,103.8850649,5.833333333333333,7.109720048687183,7.729509372283081
THE VISION,1.298462372670819,103.76497979186898,CLEMENTI MRT STATION,1.315116253,103.7651915,-19.7,6.810653086873889,-4.198277530500888
HILLVIEW VILLAS,1.3544390192107685,103.75960704582695,BUKIT GOMBAK MRT STATION,1.358611591,103.7517909,12.933333333333332,7.964398079152176,11.121289882430863
CALDECOTT HILL ESTATE,1.33643157768125,103.83488567981662,CALDECOTT MRT STATION,1.337245613,103.8401618,7.116666666666667,7.273726949754694,8.420648226470425
SRI VADAPATHIRA KALIAMMAN TEMPLE,1.3152140622978004,103.85806216419016,FARRER PARK MRT STATION,1.3131403,103.8547547,2.7333333333333334,7.074135937299243,6.607442083172728
52 GENTLE ROAD,1.318601686599998,103.8379324376044,NOVENA MRT STATION,1.320440791,103.8438256,2.633333333333333,6.286796703015409,5.776970695745661
YEW LIAN PARK,1.350819147048746,103.8339581545546,UPPER THOMSON MRT STATION,1.354416434,103.8328985,4.833333333333333,5.91326143095853,6.432942478100157
128 LORONG KISMIS,1.3359311888685343,103.7674912604652,BEAUTY WORLD MRT STATION,1.34090149,103.7757467,10.15,7.196700422506875,9.430960338005502
GURDWARA SRI GURU NANAK SATSANG SABHA (KATONG),1.30278260111996,103.89597484617568,DAKOTA MRT STATION,1.308547984,103.8890647,9.616666666666667,8.0,9.959066666666669
SYMPHONY SUITES,1.434716111200577,103.84376171148963,YISHUN MRT STATION,1.429443085,103.835005,2.3999999999999986,7.510407655709342,6.3877261245674735
KING GEORGE'S BUILDING,1.3101170774010311,103.86205256745772,LAVENDER MRT STATION,1.307377817,103.8627676,0.9500000000000002,6.008237357943711,5.04318988635497
SERANGOON GARDEN ESTATE,1.3619391150827704,103.86536320985256,LORONG CHUAN MRT STATION,1.351639278,103.8639457,10.283333333333337,6.816670525584626,9.209469753801036
JALAN KAYU ESTATE,1.4005113132045457,103.8708273458294,THANGGAM LRT STATION,1.397318156,103.8756352,7.966666666666667,6.933211990639277,8.464036259178089
CURRENCY HOUSE,1.2755044434390348,103.7940371713822,PASIR PANJANG MRT STATION,1.276213522,103.7913503,2.3000000000000003,5.0,4.7582
THE TENERIFFE,1.326929800740797,103.79130481193492,SIXTH AVENUE MRT STATION,1.330857645,103.7969068,13.133333333333336,6.009210834439155,9.76590200088466
239 OUTRAM ROAD,1.284497189410281,103.83476570785837,HAVELOCK MRT STATION,1.28850524,103.8335858,4.883333333333334,5.4895255699322245,6.131353789279114
REGINA HILL,1.3458005065446237,103.76545439087204,BEAUTY WORLD MRT STATION,1.34090149,103.7757467,11.25,5.989231477220433,8.878785181776347
45B KRETA AYER ROAD,1.28094997278155,103.8419343491397,MAXWELL MRT STATION,1.280533298,103.8438837,0.9500000000000002,6.474585226672303,5.381868181337843
136 EVERITT ROAD,1.3099965049864364,103.90406800435456,EUNOS MRT STATION,1.319783549,103.9032258,7.366666666666667,6.607192487472102,7.799220656644349
HONG KONG PARK,1.338736140660341,103.78494033794092,KING ALBERT PARK MRT STATION,1.335661613,103.7833991,15.216666666666663,6.251786925444774,10.868696207022484
154 CACTUS ROAD,1.3906784418213152,103.85149184961944,YIO CHU KANG MRT STATION,1.381498825,103.8451707,13.166666666666668,5.271087165044184,8.984336398702016
WELLINGTON PARK,1.3715180691402116,103.8339628025716,MAYFLOWER MRT STATION,1.371463188,103.8365678,1.7500000000000004,7.7697391304347825,6.832591304347827
11 CLUNY HILL,1.3159097971216105,103.8129628336268,FARRER ROAD MRT STATION,1.317439152,103.8073792,9.883333333333333,6.675281446200477,8.786139135978773
PALM MANSIONS,1.2893141255210832,103.77651483058116,KENT RIDGE MRT STATION,1.293536986,103.7845724,7.600000000000001,7.247353224254091,8.338512038259742
LA FIESTA,1.38949309642576,103.89581925599713,SENGKANG LRT STATION,1.391609364,103.8954426,1.416666666666666,7.335520804244624,6.346083310062365
369A CHANGI ROAD,1.3189573669403976,103.9100789042217,KEMBANGAN MRT STATION,1.321038134,103.9129479,2.2666666666666666,7.29606454799934,6.566518305066139
FULTON HILL,1.361505514466866,103.83393402006512,BRIGHT HILL MRT STATION,1.363846766,103.8338992,4.933333333333334,5.927968851395198,6.597708414449492
20 FERNHILL ROAD,1.3142108494926772,103.8249367837838,STEVENS MRT STATION,1.320065558,103.8260244,5.133333333333334,5.992156862745099,6.682258823529413
EAST SIGNATURE,1.312038927643994,103.93180152030044,KEMBANGAN MRT STATION,1.321038134,103.9129479,2.333333333333336,7.57574586592402,5.880730026072551
THOMSON GARDEN ESTATE,1.3536036597026655,103.83800784096336,MARYMOUNT MRT STATION,1.348707263,103.8394231,7.733333333333333,6.923558979045629,8.405780516569838
SERANGOON GARDEN ESTATE,1.3665216948349337,103.86361134361448,ANG MO KIO MRT STATION,1.369428557,103.8494552,11.983333333333334,5.655986357924968,8.757579680488242
89 CEYLON ROAD,1.3081601448037383,103.90071415529684,DAKOTA MRT STATION,1.308547984,103.8890647,12.566666666666665,8.0,11.145666666666667
TAMPINES GREENLEAF,1.359275331002337,103.9388221539172,TAMPINES WEST MRT STATION,1.345633658,103.9384925,14.033333333333337,7.018005212035063,10.852937502961385
GOLDEN HILL ESTATE,1.3557663270488876,103.86411858242136,LORONG CHUAN MRT STATION,1.351639278,103.8639457,4.133333333333334,6.146393262541195,6.37424794336629
24 SWETTENHAM ROAD,1.3027956221408696,103.80579274888632,COMMONWEALTH MRT STATION,1.302501999,103.7982285,-1.349999999999998,5.890261063155022,3.4917938420179384
NORTHSHORE BUNGALOWS,1.415539717002628,103.90420579400237,SAMUDERA LRT STATION,1.415901722,103.9021563,4.933333333333334,7.566915887850467,7.884866043613707
77 GOODMAN ROAD,1.3041222949366666,103.88686358446532,MOUNTBATTEN MRT STATION,1.306201905,103.8825281,5.2,6.715882954255049,7.28670636340404
FRANKEL ESTATE,1.3200069381159292,103.91582881125984,KEMBANGAN MRT STATION,1.321038134,103.9129479,2.583333333333334,6.635287930581119,6.204363677798229
25 JALAN LAPANG,1.322977621554262,103.91766645679338,KEMBANGAN MRT STATION,1.321038134,103.9129479,4.316666666666666,7.629959357460808,7.679234152635313
6 BELMONT ROAD,1.3136089614548536,103.79916722767156,HOLLAND VILLAGE MRT STATION,1.312240296,103.7963991,5.75,7.272028180194482,8.036622544155588
PEAKVILLE PARK,1.3332081661474005,103.9448090755876,TANAH MERAH MRT STATION,1.327310982,103.9464517,7.833333333333334,7.3173498122653315,8.6506131831456
15 SOMMERVILLE WALK,1.3444796070721152,103.86991334155204,WOODLEIGH MRT STATION,1.339190045,103.8708183,5.2,5.411736373123545,6.275789098498835
SINGAPORE PRISON SERVICE (HEADQUARTERS),1.3544554907290296,103.96861812434535,TAMPINES EAST MRT STATION,1.356191483,103.9546345,11.133333333333333,7.339251388699693,9.634134444293089
33C NEWTON ROAD,1.3163491892842956,103.84091764574136,NEWTON MRT STATION,1.312318922,103.8379846,5.283333333333334,5.56027768371148,6.370155480302517
APOLLO GARDENS,1.3387238416584295,103.95758058551104,UPPER CHANGI MRT STATION,1.341739774,103.9614728,3.083333333333334,5.74313446969697,5.59964090909091
WOODLANDS AVENUE 7,1.4442233028584144,103.807020253402,ADMIRALTY MRT STATION,1.440588562,103.8009905,6.4,7.741880146386094,8.587504117108876
DUNEARN ESTATE,1.326706419326136,103.8235937360598,STEVENS MRT STATION,1.320065558,103.8260244,7.666666666666666,6.808654958460406,8.321190633434991
33 LORONG H TELOK KURAU,1.3158300568098202,103.90745513516654,EUNOS MRT STATION,1.319783549,103.9032258,-1.333333333333334,7.564742589703589,5.095660738429538
5 PRINCESS OF WALES ROAD,1.3240702143271408,103.80879770132567,TAN KAH KEE MRT STATION,1.326392241,103.8065482,2.9666666666666663,6.444989957598751,6.159058632745667
BAN GUAN PARK,1.3222033936227746,103.78466837139996,DOVER MRT STATION,1.311405293,103.7786378,9.3,5.250789042628278,7.261739233729742
HAI SING PARK,1.3656215502370137,103.89302077828772,HOUGANG MRT STATION,1.371292266,103.8923805,8.099999999999998,6.363509425180359,8.128007540144287
SERANGOON PARK,1.34729910234563,103.86722529095854,LORONG CHUAN MRT STATION,1.351639278,103.8639457,5.9833333333333325,7.906088627356791,8.560204235218766
JERVOIS LODGE,1.2943974862581775,103.82314519492336,REDHILL MRT STATION,1.289634534,103.816741,6.983333333333334,7.800900620238467,8.604853829524108
17 THONG SOON GREEN,1.398815724773134,103.81930901331296,SPRINGLEAF MRT STATION,1.397581061,103.8178569,1.966666666666666,6.684539767649687,5.931098480786417
THE OLD HOUSE,1.3625410067812471,103.88759431859704,KOVAN MRT STATION,1.360179171,103.8850649,3.9166666666666665,5.094204303159527,5.565030109194288
NANYANG PARK,1.364556743035123,103.87591045948696,KOVAN MRT STATION,1.360179171,103.8850649,8.616666666666665,7.226914439209125,8.951198218033966
TREASURE CREST,1.398277805567424,103.8923566186224,CHENG LIM LRT STATION,1.396277633,103.8937972,3.75,7.960518750399284,7.784415000319427
MERA TERRACE,1.3470215445946108,103.96400062181014,UPPER CHANGI MRT STATION,1.341739774,103.9614728,4.533333333333333,6.083025533964991,6.403553760505327
ESTE VILLA,1.3823432832372704,103.86409651528813,FERNVALE LRT STATION,1.391885892,103.8763086,16.266666666666666,6.833990500940945,11.432259067419423
16B KIM KEAT CLOSE,1.32362631149911,103.85298785942028,NOVENA MRT STATION,1.320440791,103.8438256,12.866666666666667,7.385382314594679,10.69797251834241
GRANGE HEIGHTS,1.2978316601053277,103.83533287519845,SOMERSET MRT STATION,1.300264167,103.8390858,6.966666666666667,7.661764705882353,8.61647843137255
18 SANDY LANE,1.3121401555189256,103.89289211183574,PAYA LEBAR MRT STATION,1.31719912,103.8923649,3.033333333333334,6.216577896138483,6.017795650244121
CANBERRA STREET,1.4511564817941451,103.82976088884128,CANBERRA MRT STATION,1.443076641,103.8297026,11.933333333333334,7.345047656206455,10.385971458298497
HOOVER PARK,1.3423077374999637,103.77279195156407,BEAUTY WORLD MRT STATION,1.34090149,103.7757467,2.333333333333333,7.02525,6.3285333333333345
SENNETT ESTATE,1.331327653978715,103.87424418776035,POTONG PASIR MRT STATION,1.331879714,103.8690579,4.533333333333332,7.374305750350633,7.50217793361384
VARSITY PARK CONDOMINIUM,1.294561475160776,103.7671655635068,KENT RIDGE MRT STATION,1.293536986,103.7845724,21.58333333333333,6.822533997907821,13.477976370197569
HILLVIEW GARDEN ESTATE,1.3588759609532624,103.75789976264215,BUKIT GOMBAK MRT STATION,1.358611591,103.7517909,18.816666666666663,7.869132893496701,13.197966916288127
79N JALAN SENANG,1.3279842262634252,103.91498112207462,KEMBANGAN MRT STATION,1.321038134,103.9129479,5.783333333333333,7.536157749267769,8.083659532747548
HAPPY GARDENS,1.3305165422703549,103.88108702544022,MATTAR MRT STATION,1.326876715,103.8832475,3.1833333333333336,7.384087399187782,6.946803252683559
FUDU PARK,1.389759647705469,103.83819626885033,LENTOR MRT STATION,1.38550658,103.8357438,4.316666666666666,8.0,7.9038666666666675
MEDWAY PARK,1.306290530385223,103.77549528773628,DOVER MRT STATION,1.311405293,103.7786378,8.116666666666664,7.44946200118614,8.854636267615579
ONE DRAYCOTT,1.3102506579536328,103.83048176148093,NEWTON MRT STATION,1.312318922,103.8379846,11.133333333333333,6.12122052704577,9.05730975496995
HOCK SENG PARK,1.33638076181998,103.7863386403064,KING ALBERT PARK MRT STATION,1.335661613,103.7833991,22.73333333333333,5.853280369041518,13.626557628566546
KINGS VILLE,1.3195737438597372,103.80667436351553,FARRER ROAD MRT STATION,1.317439152,103.8073792,2.883333333333333,6.272239422084623,5.997724871001032
MABELLE,1.310697026374683,103.90944397846,KEMBANGAN MRT STATION,1.321038134,103.9129479,9.783333333333331,7.340454660085744,9.199097061401929
PASIR PANJANG GARDENS,1.308867354838685,103.76200586861032,CLEMENTI MRT STATION,1.315116253,103.7651915,-30.98333333333333,6.816381175952756,-8.592628392571127
ONE LYNWOOD,1.344097206218677,103.86303485352722,LORONG CHUAN MRT STATION,1.351639278,103.8639457,9.233333333333334,7.947229907551118,9.763717259374229
BOON LAY BUS INTERCHANGE,1.3394623422216207,103.705235838909,BOON LAY MRT STATION,1.338610339,103.7060849,-2.583333333333333,7.350586737014464,4.675336056278239
EMERALD HILL CONSERVATION AREA,1.3040373142603872,103.83933786468968,SOMERSET MRT STATION,1.300264167,103.8390858,1.5000000000000009,6.26394821142552,5.389358569140417
19A TAMPINES AVENUE,1.36649952694986,103.92627679151722,PASIR RIS MRT STATION,1.37300805,103.9492651,22.0,6.656361428967468,13.147489143173976
2 LIANG SEAH STREET,1.2979025506259088,103.856830991058,BUGIS MRT STATION,1.300465085,103.8557067,2.0499999999999994,5.254589963280293,4.910671970624234
MCMAHON PARK,1.3163792530261071,103.78695756704109,DOVER MRT STATION,1.311405293,103.7786378,9.283333333333331,5.599365859971528,7.5650260213105565
PAVILION PARK,1.371206769408548,103.75254619674487,TECK WHYE LRT STATION,1.376684679,103.7537122,6.333333333333333,5.616702052370842,6.726894975230007
816 YISHUN STREET 81,1.41197190553612,103.83367753912628,KHATIB MRT STATION,1.41738337,103.8329799,0.2333333333333325,7.320417365771812,5.627067225950783
KEW RESIDENCIA,1.318968003544767,103.9483542858302,TANAH MERAH MRT STATION,1.327310982,103.9464517,2.0500000000000007,6.739514560775934,5.610411648620747
2 JALAN MAHIR,1.34454782567715,103.8838628055617,BARTLEY MRT STATION,1.342501178,103.8801779,7.566666666666667,6.10081915563957,7.683321991178324
139A YIO CHU KANG ROAD,1.359739891674324,103.87365670307476,SERANGOON MRT STATION,1.350633615,103.8727717,7.933333333333333,5.172624863497902,7.105033224131655
36 MARGOLIOUTH ROAD,1.3193756989769174,103.82330622282024,STEVENS MRT STATION,1.320065558,103.8260244,4.133333333333333,6.428134878819811,6.683841236389182
MAYFAIR PARK,1.3410091834782456,103.78236118125614,KING ALBERT PARK MRT STATION,1.335661613,103.7833991,2.200000000000001,6.29573987029214,5.566391896233713
CENTURION RESIDENCES,1.32988632861832,103.86996415001636,POTONG PASIR MRT STATION,1.331879714,103.8690579,3.0166666666666666,7.367071041675992,6.9083235000074605
FRANKEL ESTATE,1.3131119961796205,103.92063044189152,KEMBANGAN MRT STATION,1.321038134,103.9129479,4.300000000000001,7.841800908715407,7.538240726972326
WASHINGTON VILLA,1.3889282530334974,103.8613915179276,FERNVALE LRT STATION,1.391885892,103.8763086,14.916666666666668,6.4935100638193415,10.66107471772214
FERNWOOD TERRACES,1.3100258031642784,103.92529804582315,KEMBANGAN MRT STATION,1.321038134,103.9129479,13.3,7.945660801693346,11.146328641354678
VILLA VERDE,1.3911188834946002,103.75206637862436,YEW TEE MRT STATION,1.397297711,103.7473577,6.433333333333335,7.426589530442597,8.171204957687412
BINJAI CREST,1.343943700346491,103.7880633095422,KING ALBERT PARK MRT STATION,1.335661613,103.7833991,27.75,6.708517614762848,16.07702961720299
SINGAPORE - MAIN ISLAND,1.3556905483825488,103.74483181365667,BUKIT GOMBAK MRT STATION,1.358611591,103.7517909,6.483333333333333,7.642768521800781,8.425748150773959
SERANGOON GARDEN ESTATE,1.3604564084830784,103.86276516293007,LORONG CHUAN MRT STATION,1.351639278,103.8639457,10.45,6.687820811945871,9.223056649556696
CHIP THYE GARDEN,1.3814761850070607,103.83767343307024,LENTOR MRT STATION,1.38550658,103.8357438,5.866666666666667,6.747435974329755,7.5812154461304715
35A SHREWSBURY ROAD,1.318355886827264,103.84732443496368,NOVENA MRT STATION,1.320440791,103.8438256,5.2333333333333325,6.857996363321499,7.467930423990532
SELETAR HILLS ESTATE,1.385236095590498,103.87367777522516,FERNVALE LRT STATION,1.391885892,103.8763086,-0.3499999999999978,7.669471302564829,5.434577042051865
19 ROCHALIE DRIVE,1.3013317134612927,103.8213273262608,ORCHARD MRT STATION,1.302422248,103.8238685,3.366666666666667,6.815063649222066,6.63051758604432
LUXUS HILLS,1.3803201945129773,103.87135285190088,FERNVALE LRT STATION,1.391885892,103.8763086,9.466666666666669,7.412008541640499,8.945073499979067
PARK VILLAS,1.3678213579006824,103.88009273214384,KOVAN MRT STATION,1.360179171,103.8850649,9.216666666666669,7.29330642448705,9.250311806256308
SERANGOON GARDEN ESTATE,1.3647395628491148,103.8685587623005,LORONG CHUAN MRT STATION,1.351639278,103.8639457,14.0,6.598909210202577,10.489727368162061
SEA VIEW PARK,1.2995869664430093,103.89589546191672,DAKOTA MRT STATION,1.308547984,103.8890647,11.95,8.0,10.8294
HILLCREST PARK,1.3324097173770528,103.80692341920252,TAN KAH KEE MRT STATION,1.326392241,103.8065482,8.216666666666665,6.432095611714259,7.918543156038074
JEWEL @ BUANGKOK,1.380953798262646,103.89229895929948,BUANGKOK MRT STATION,1.38287002,103.8931226,2.8666666666666663,8.0,7.401466666666668
3 GUAN SOON AVENUE,1.3370122043400583,103.953979547931,SIMEI MRT STATION,1.343197079,103.9533772,5.366666666666667,7.672092445328032,7.936540622929094
SEMBAWANG HILLS ESTATE,1.3709481741832708,103.830247207796,MAYFLOWER MRT STATION,1.371463188,103.8365678,6.666666666666667,7.556107716070108,8.526352839522755
SOMMERVILLE PARK,1.3120200989029789,103.80690573019209,FARRER ROAD MRT STATION,1.317439152,103.8073792,3.916666666666668,5.650009843165561,5.7968745411991165
DESKER ROAD CONSERVATION AREA,1.3091989850936234,103.85716438033984,JALAN BESAR MRT STATION,1.305171388,103.8552957,3.5333333333333337,6.653318077803205,6.6291877955758975
MANDARIN PARK,1.3422265706469936,103.7706416567474,BEAUTY WORLD MRT STATION,1.34090149,103.7757467,6.566666666666666,5.402559867877788,6.7049145609688985
4 SUNSET CRESCENT,1.328083198427428,103.76811374537807,CLEMENTI MRT STATION,1.315116253,103.7651915,9.35,6.437828396352027,8.339862717081623
SUMMER GARDENS,1.3309360986108305,103.95020213405084,TANAH MERAH MRT STATION,1.327310982,103.9464517,4.433333333333333,6.395091600414795,6.642206613665169
15 COUNTRYSIDE VIEW,1.3879276193469612,103.83979968172036,LENTOR MRT STATION,1.38550658,103.8357438,6.9,7.524826113904001,8.5826608911232
ARCHIPELAGO,1.3382814633554496,103.92023467931612,BEDOK NORTH MRT STATION,1.334742117,103.9179783,7.866666666666667,5.026477570150344,7.052648722786942
BUANGKOK DRIVE,1.3799480065979226,103.9015541871894,KANGKAR LRT STATION,1.383959117,103.9022254,5.466666666666666,5.558908487493086,6.3749934566611355
SELETAR HILLS ESTATE,1.3845908801490296,103.86928602475838,FERNVALE LRT STATION,1.391885892,103.8763086,11.916666666666668,6.704567897751319,9.707920984867723
DUCHESS GARDEN,1.323285465623237,103.8006816833026,TAN KAH KEE MRT STATION,1.326392241,103.8065482,7.099999999999998,7.528647771088413,8.57391821687073
MUGLISTON HILL,1.3857810869039715,103.87828570248116,FERNVALE LRT STATION,1.391885892,103.8763086,-2.4999999999999982,7.645520386266096,4.608416309012878
ANGSANA PARK,1.3466500547827964,103.77628583193707,BEAUTY WORLD MRT STATION,1.34090149,103.7757467,5.800000000000001,5.8539903688812,6.85459229510496
17B LORONG 15 GEYLANG,1.3132636871922392,103.87800363542452,ALJUNIED MRT STATION,1.316432612,103.882906,5.366666666666666,6.257742257742257,6.991660472860473
MARYLAND ESTATE,1.3197894944525328,103.78675788668072,DOVER MRT STATION,1.311405293,103.7786378,7.016666666666666,5.795496668837349,6.767264001736546
107 LANGSAT ROAD,1.3157143512686311,103.90430399981804,EUNOS MRT STATION,1.319783549,103.9032258,1.1333333333333329,6.494775128456787,5.370953436098763
OPERA ESTATE,1.3192951313822208,103.9264404121338,KEMBANGAN MRT STATION,1.321038134,103.9129479,10.483333333333333,7.274165664461816,9.637265864902787
SAINT PATRICK'S LOFT,1.308537205036616,103.91363255382684,KEMBANGAN MRT STATION,1.321038134,103.9129479,12.716666666666669,7.937702396373058,11.022628583765115
BARTLEY RISE ESTATE,1.345005725263232,103.87387170025228,SERANGOON MRT STATION,1.350633615,103.8727717,0.0333333333333314,5.826870039961726,4.348429365302713
CORAL ISLAND,1.2514841536873396,103.84617627513512,TANJONG PAGAR MRT STATION,1.276568292,103.8460067,56.01666666666666,,
TOH ESTATE,1.3651060145910103,103.973329579471,CHANGI AIRPORT MRT STATION,1.357478974,103.9878836,32.3,7.996352193179629,18.217881754543704
TANGLIN HILL VILLAS,1.3015636109953648,103.81648754061167,NAPIER MRT STATION,1.306782234,103.8189568,11.216666666666669,5.5979960733870415,8.678463525376301
PARC OASIS,1.3438743067054604,103.73386371213708,CHINESE GARDEN MRT STATION,1.342244948,103.7327666,0.0333333333333332,7.1334970217796565,5.516930950757058
FENGLI GARDENS,1.3477639182053616,103.87883543272616,BARTLEY MRT STATION,1.342501178,103.8801779,1.7833333333333314,5.997546085707446,5.11957020189929
26 LIMAU GROVE,1.322922271027487,103.95164794872764,BEDOK MRT STATION,1.320401487,103.9571838,13.016666666666666,7.295073068893529,10.85572512178149
GAMBIER COURT,1.2925313079771796,103.8397310097923,FORT CANNING MRT STATION,1.292481948,103.8443314,7.566666666666666,5.963188576668632,7.659217528001573
ENG AUN PARK,1.3229568599538024,103.84279676737528,NOVENA MRT STATION,1.320440791,103.8438256,2.6166666666666663,6.430102773787159,6.014548885696394
THE RAINFOREST,1.3836464320089947,103.74881833220276,CHOA CHU KANG LRT STATION,1.384755411,103.7445377,6.533333333333333,6.51648424543947,7.662320729684909
TAI HWAN PARK,1.355435661344629,103.85975066310962,LORONG CHUAN MRT STATION,1.351639278,103.8639457,7.783333333333334,6.524546660769572,8.118570661948992
ADAM GREEN,1.325239208887994,103.81317644421016,BOTANIC GARDENS MRT STATION,1.322113736,103.8149845,-16.166666666666664,6.682714781886891,-1.6107636805813426
THE WHITLEY RESIDENCES,1.32590495497465,103.8382228871564,NOVENA MRT STATION,1.320440791,103.8438256,9.033333333333331,6.157321321587856,8.200190390603618
GOLDLEAF GARDENS,1.3117953235123696,103.91480977332223,KEMBANGAN MRT STATION,1.321038134,103.9129479,0.3666666666666671,7.952976044976779,5.9604475026480905
154 JALAN LOYANG BESAR,1.3771756958073045,103.95847151881983,PASIR RIS MRT STATION,1.37300805,103.9492651,9.283333333333331,7.948545505193203,9.778969737487895
10 CHAPEL ROAD,1.3059807846002427,103.90745051412812,EUNOS MRT STATION,1.319783549,103.9032258,3.56666666666667,7.499191215000112,6.706419638666757
CHARLTON PARK,1.354982992033489,103.88559557190092,KOVAN MRT STATION,1.360179171,103.8850649,4.616666666666667,7.590645922955009,7.638783405030674
NORTHPOINT CITY,1.4274794611443784,103.83602061015633,YISHUN MRT STATION,1.429443085,103.835005,7.15,6.953845076341223,8.313676061072979
THE CLEARWATER,1.3376657405668777,103.93473295022504,BEDOK RESERVOIR MRT STATION,1.33660783,103.9322346,2.8500000000000005,6.672230215827338,6.329984172661871
RAFFLES PARK,1.3334843914521948,103.80302322072572,SIXTH AVENUE MRT STATION,1.330857645,103.7969068,9.683333333333332,6.400049221682151,8.758372710679055
BALMORAL RESIDENCES,1.3150277705267908,103.835083763713,NEWTON MRT STATION,1.312318922,103.8379846,16.683333333333334,5.615972955841961,10.923311698006902
HOLLAND GROVE PARK,1.3137230388923546,103.77995650038538,DOVER MRT STATION,1.311405293,103.7786378,-9.733333333333334,6.992877421925587,1.0681686042071359
20 SIMON LANE,1.3638404506853552,103.88490366310184,KOVAN MRT STATION,1.360179171,103.8850649,3.0666666666666664,7.000372023809525,6.715764285714286
18 RAMSGATE ROAD,1.2983433312488952,103.8901075060374,DAKOTA MRT STATION,1.308547984,103.8890647,2.866666666666667,6.626550868486353,5.92370736145575
CAMDEN PARK,1.327544735967185,103.81557501522347,BOTANIC GARDENS MRT STATION,1.322113736,103.8149845,-14.05,6.916940339354132,-0.6712670498084305
SHAMROCK PARK,1.3259231008437886,103.7975309789502,SIXTH AVENUE MRT STATION,1.330857645,103.7969068,5.1000000000000005,6.960750690673526,7.322200552538822
33 GLASGOW ROAD,1.3628427747485865,103.87994971161724,KOVAN MRT STATION,1.360179171,103.8850649,5.583333333333334,6.939022179246993,7.626151076730928
115A HO CHING ROAD,1.3341451445885235,103.72497362759567,LAKESIDE MRT STATION,1.344259115,103.7209491,9.55,6.706839329105672,8.89427146328454
PALM ISLES,1.3566795331123171,103.96348286381952,TAMPINES EAST MRT STATION,1.356191483,103.9546345,18.916666666666664,6.54853408689509,12.57349393618274
14 GENTLE ROAD,1.3203179742937483,103.84059587441809,NOVENA MRT STATION,1.320440791,103.8438256,2.9000000000000004,6.300573138710861,5.96685851096869
THOMSON HILLS ESTATE,1.3778021491649204,103.8344039834794,MAYFLOWER MRT STATION,1.371463188,103.8365678,9.383333333333333,7.510976239669422,9.462714325068871
SELETAR HILLS ESTATE,1.3834551866589129,103.8723120524275,FERNVALE LRT STATION,1.391885892,103.8763086,0.8500000000000014,7.678578795379539,5.890263036303632
ISCA HOUSE,1.2822984130051571,103.84941875258572,TELOK AYER MRT STATION,1.282068948,103.8486488,1.2999999999999998,6.5694145758661895,5.752931660692952
OEI TIONG HAM PARK,1.314588736842612,103.79115961045734,HOLLAND VILLAGE MRT STATION,1.312240296,103.7963991,5.516666666666667,5.606289630436176,6.534698371015606
30 LAKESHORE VIEW,1.2495656352391256,103.83820736583868,HARBOURFRONT MRT STATION,1.265389384,103.8215302,28.433333333333334,7.042723813626247,16.10153936391701
JALAN KAYU ESTATE,1.398274762279271,103.87229405922648,THANGGAM LRT STATION,1.397318156,103.8756352,5.583333333333333,6.09805993084902,6.81258127801255
EAST COAST HILL,1.3174697300550402,103.93714452772078,TANAH MERAH MRT STATION,1.327310982,103.9464517,1.06666666666667,6.656981482534449,4.9172518526942275
BUKIT CHERMIN ROAD,1.2699206615590195,103.81202475829156,TELOK BLANGAH MRT STATION,1.270706478,103.8097616,5.583333333333333,5.204360087367635,6.329193500880128
58A LORONG H TELOK KURAU,1.3161764075568918,103.9103840654962,KEMBANGAN MRT STATION,1.321038134,103.9129479,3.1999999999999997,7.52519445383835,7.0095555630706805
19 JALAN AMPANG,1.321475311312782,103.79519699382972,HOLLAND VILLAGE MRT STATION,1.312240296,103.7963991,13.616666666666664,7.097702120469712,10.814828363042436
MACPHERSON GARDEN ESTATE,1.3328338108492688,103.88047051019883,MATTAR MRT STATION,1.326876715,103.8832475,8.316666666666666,7.4082462660402495,9.026663679498867
WEST COAST GARDENS,1.3145848859502882,103.75657361795564,CLEMENTI MRT STATION,1.315116253,103.7651915,-22.26666666666667,6.909416707859615,-4.746133300378975
GLENDALE PARK,1.3629412033290045,103.76511520032756,HILLVIEW MRT STATION,1.362344868,103.7674183,3.4333333333333336,6.462105573577116,6.364617792195027
KEMBANGAN ESTATE,1.3220479499903643,103.91061225201976,KEMBANGAN MRT STATION,1.321038134,103.9129479,2.333333333333333,7.042598358335691,6.448612020001886
WESTWOOD PARK,1.351643977418176,103.70029580169812,BOON LAY MRT STATION,1.338610339,103.7060849,12.966666666666663,7.691359738952339,10.852554457828537
EVERGREEN GARDEN,1.3153725326870784,103.93556663706282,TANAH MERAH MRT STATION,1.327310982,103.9464517,10.55,6.399950003408859,8.678760002727088
SEMBAWANG SPRINGS ESTATE,1.443413893128895,103.82610963163091,CANBERRA MRT STATION,1.443076641,103.8297026,-1.333333333333334,7.25653723050909,4.789896451073939
SERANGOON GARDEN ESTATE,1.3567988215055329,103.86626693323144,LORONG CHUAN MRT STATION,1.351639278,103.8639457,2.450000000000001,6.8530520646319575,6.157041651705567
CASTELLO,1.3485546325658135,103.86138777946395,LORONG CHUAN MRT STATION,1.351639278,103.8639457,11.45,7.905656056789557,10.575524845431646
9 LUCKY GARDENS,1.3188528149032763,103.94132736627952,TANAH MERAH MRT STATION,1.327310982,103.9464517,-3.25,6.9227789681885605,3.5094231745508484
HOTEL 81 - STAR,1.3114986305389729,103.8807076347058,ALJUNIED MRT STATION,1.316432612,103.882906,4.85,6.651663405088062,7.085930724070449
SENGKANG NEW TOWN,1.3935448343113417,103.8815586668478,LAYAR LRT STATION,1.392079837,103.8800296,4.516666666666667,5.897022938018545,6.351485017081504
THOMSON RISE ESTATE,1.3528736380784832,103.84666547751834,BISHAN MRT STATION,1.351315801,103.8491403,2.8166666666666678,7.068761800353248,6.600476106949266
THE RIVERINA,1.3790389503795584,103.94430984075063,PASIR RIS MRT STATION,1.37300805,103.9492651,6.516666666666668,7.13381317235508,8.020117204550733
PASIR RIS BEACH PARK,1.381876048730445,103.94369710370188,PASIR RIS MRT STATION,1.37300805,103.9492651,5.816666666666666,7.68234780823324,7.974744913253259
HAVELOCK VIEW,1.2892974073996053,103.82827590214312,TIONG BAHRU MRT STATION,1.286102536,103.8274451,0.583333333333333,5.41112171078782,4.37603070196359
PASIR PANJANG GARDENS,1.3081473430991892,103.76395407998272,CLEMENTI MRT STATION,1.315116253,103.7651915,-29.866666666666664,6.800094777041656,-8.102190845033341
HILLCREST VILLA,1.3286753444216948,103.80570289797294,TAN KAH KEE MRT STATION,1.326392241,103.8065482,11.449999999999998,6.166536921708185,9.104029537366547
280B JOO CHIAT ROAD,1.310630658552368,103.90132435751084,EUNOS MRT STATION,1.319783549,103.9032258,3.5666666666666664,7.379792906920971,6.779700992203445
96 COWDRAY AVENUE,1.3688173476205414,103.86407732219588,ANG MO KIO MRT STATION,1.369428557,103.8494552,18.616666666666667,5.402975910272416,11.307632462118887
WINDSOR PARK,1.3576562957428109,103.8257384878654,UPPER THOMSON MRT STATION,1.354416434,103.8328985,3.666666666666666,5.742885278188085,5.7735748892171355
CHWEE CHIAN VIEW,1.2801033012494702,103.78754443292723,PASIR PANJANG MRT STATION,1.276213522,103.7913503,5.449999999999999,6.372702284830785,7.113561827864628
10 JALAN LYE KWEE,1.3710572158856715,103.89783598944308,HOUGANG MRT STATION,1.371292266,103.8923805,5.95,6.538367678958785,7.433494143167028
EDENZ LOFT,1.3122545489648685,103.88358437205372,ALJUNIED MRT STATION,1.316432612,103.882906,2.633333333333333,7.531933185949398,6.9642798820928515
45 JOO CHIAT TERRACE,1.3145275358118564,103.90045789745542,EUNOS MRT STATION,1.319783549,103.9032258,0.6166666666666671,7.225003525595826,5.616269487143327
FRANKEL ESTATE,1.316756533262296,103.9201579832931,KEMBANGAN MRT STATION,1.321038134,103.9129479,7.616666666666665,7.353725542749932,8.648847100866613
WATTEN ESTATE,1.3273295235485996,103.81017005165413,TAN KAH KEE MRT STATION,1.326392241,103.8065482,3.083333333333334,6.238033461572874,5.8685601025916325
KING ALBERT PARK,1.3332680045789655,103.77915985994268,KING ALBERT PARK MRT STATION,1.335661613,103.7833991,3.75,6.218087300932421,6.221669840745937
WOODLANDS PARK,1.415556172940447,103.75748102656726,KRANJI MRT STATION,1.425086981,103.7621375,7.583333333333332,5.660691184623913,7.025286281032464
BRIZAY PARK,1.3318057987257768,103.78697630638736,KING ALBERT PARK MRT STATION,1.335661613,103.7833991,7.75,6.36029651352232,7.950637210817856
17 SAINT HELIER'S AVENUE,1.3613845589199212,103.8711260074872,SERANGOON MRT STATION,1.350633615,103.8727717,8.166666666666668,5.866852776961505,7.5917488882358715
PHOENIX HEIGHTS,1.3758825834877295,103.75768668613505,PHOENIX LRT STATION,1.378615451,103.7579956,5.133333333333333,6.091033966033965,6.753760506160505
FLORIDA PARK,1.3898885478222696,103.85503963362744,YIO CHU KANG MRT STATION,1.381498825,103.8451707,13.25,5.274846787046317,8.914277429637055
TOA PAYOH RIDGE,1.3401595348004165,103.84353965417192,BRADDELL MRT STATION,1.340469001,103.8467991,3.4666666666666663,6.539701855795557,6.518028151303113
18 LORONG ABU TALIB,1.3159252039194271,103.92808086365956,KEMBANGAN MRT STATION,1.321038134,103.9129479,-6.683333333333337,7.553939906674246,2.251418592006062
NATHAN SUITES,1.295404344327035,103.82741015758556,GREAT WORLD MRT STATION,1.293316457,103.8339066,8.333333333333332,6.533758614267089,8.328540224747005
MIMOSA VILLAS,1.382351375123592,103.86115342976272,YIO CHU KANG MRT STATION,1.381498825,103.8451707,-1.9833333333333345,7.413674591162045,3.783806339596302
CHENG SOON GARDEN,1.3356441961626049,103.7720179215936,BEAUTY WORLD MRT STATION,1.34090149,103.7757467,7.1,7.170615791975015,8.193692633580012
WATTEN HILL,1.3308184708481912,103.80972307955092,TAN KAH KEE MRT STATION,1.326392241,103.8065482,5.35,6.368916139843096,6.756132911874477
4A PARKSTONE ROAD,1.3065762172808395,103.89500888176111,DAKOTA MRT STATION,1.308547984,103.8890647,6.083333333333334,8.0,8.626133333333334
SAINT MARTIN RESIDENCE,1.3063839153973371,103.8244853637198,ORCHARD BOULEVARD MRT STATION,1.303623073,103.8236504,2.8166666666666664,7.039734201247628,6.54805402766477
PRINCESS OF WALES PARK,1.322600079304083,103.80713444081712,TAN KAH KEE MRT STATION,1.326392241,103.8065482,2.7333333333333334,7.103563617650841,6.627584227454006
14 EAST COAST DRIVE,1.3100406664090318,103.92249921071704,KEMBANGAN MRT STATION,1.321038134,103.9129479,10.733333333333333,7.9373711930387,10.192030287764293
SPRINGLEAF GARDEN,1.397603365240469,103.82111902376997,SPRINGLEAF MRT STATION,1.397581061,103.8178569,3.4333333333333336,7.43898961091872,7.13012502206831
KEMBANGAN ESTATE,1.3212580710917767,103.90859900738702,KEMBANGAN MRT STATION,1.321038134,103.9129479,2.8500000000000005,7.321736514938841,6.827789211951074
30B MEYER ROAD,1.2986325947356376,103.88537550269211,MOUNTBATTEN MRT STATION,1.306201905,103.8825281,7.666666666666667,5.257482870537324,7.072652963096527
HOLLAND GROVE PARK,1.3139721383562837,103.78259668741435,DOVER MRT STATION,1.311405293,103.7786378,-3.950000000000001,6.956674291807847,3.4131394334462772
SPRINGWOOD,1.279583654309659,103.79109504811552,PASIR PANJANG MRT STATION,1.276213522,103.7913503,2.666666666666666,6.720359151882302,6.224353988172509
KIMSIA PARK,1.305638280942046,103.83481968678714,SOMERSET MRT STATION,1.300264167,103.8390858,7.283333333333333,6.146152764101842,7.450655544614808
10A FIRST AVENUE,1.3285902193157555,103.80002170006362,SIXTH AVENUE MRT STATION,1.330857645,103.7969068,12.283333333333337,5.91496217427851,9.522903072756144
39 HILLSIDE DRIVE,1.3586726706799976,103.87640203659568,KOVAN MRT STATION,1.360179171,103.8850649,8.383333333333335,7.258383218961404,8.901839908502456
THE WOODS,1.3516757075667467,103.69792147363276,PIONEER MRT STATION,1.337587011,103.6973216,14.683333333333334,7.406335231350782,11.23720151841396
LAKE GRANDE,1.3457620649039967,103.72467232851716,LAKESIDE MRT STATION,1.344259115,103.7209491,5.550000000000001,6.505594236031729,7.315675388825383
FABER HILLS,1.319106097735371,103.75886369634584,CLEMENTI MRT STATION,1.315116253,103.7651915,9.45,5.807378656002509,8.191502924802007
ADELPHI PARK ESTATE,1.3551942789257931,103.8286267804012,UPPER THOMSON MRT STATION,1.354416434,103.8328985,3.8833333333333337,7.197716630715001,7.109197457077219
SERANGOON GARDEN ESTATE,1.3637600386254207,103.86377752723148,LORONG CHUAN MRT STATION,1.351639278,103.8639457,12.266666666666667,6.943787715962636,10.052096839436777
SENNETT ESTATE,1.333923076912693,103.87676667432376,WOODLEIGH MRT STATION,1.339190045,103.8708183,9.483333333333333,6.214849265011212,8.421412745342304
40 BRANKSOME ROAD,1.3040283436416786,103.89387543085536,DAKOTA MRT STATION,1.308547984,103.8890647,7.466666666666666,8.0,9.163866666666667
SERANGOON GARDEN ESTATE,1.3590084325164136,103.86597084365208,LORONG CHUAN MRT STATION,1.351639278,103.8639457,6.483333333333334,6.818045955538952,7.764170097764495
LOYANG VILLAS,1.3639264980065846,103.96656981442038,TAMPINES EAST MRT STATION,1.356191483,103.9546345,8.85,6.977728469817308,8.644382775853845
CAPITOL PARK,1.324221427848212,103.81828421291748,BOTANIC GARDENS MRT STATION,1.322113736,103.8149845,-13.85,7.368343372292473,-0.1264014121025968
ROCHESTER PARK,1.3038701661406176,103.78593758704548,ONE-NORTH MRT STATION,1.299689535,103.7874128,5.816666666666667,6.571053224232415,7.453909246052599
CHESTNUT-VILLE,1.367195550543844,103.76962513097745,HILLVIEW MRT STATION,1.362344868,103.7674183,3.866666666666667,6.847767942431382,6.823881020611772
FORTUNA GARDENS,1.364689684511668,103.88294863730056,KOVAN MRT STATION,1.360179171,103.8850649,5.3,7.209201877934271,7.732361502347417
NV RESIDENCES,1.3707274738356758,103.9447151274674,PASIR RIS MRT STATION,1.37300805,103.9492651,4.3500000000000005,6.016871828096318,6.3566974624770545
KEMBANGAN ESTATE,1.322230821436457,103.90651161208518,EUNOS MRT STATION,1.319783549,103.9032258,3.5,6.551372922747037,6.46369833819763
BELGRAVIA PARK,1.3821380719420813,103.86917191124452,FERNVALE LRT STATION,1.391885892,103.8763086,6.066666666666666,7.702836710369488,7.902136034962258
10J TOH TUCK CRESCENT,1.3378046762696365,103.76528791397304,BEAUTY WORLD MRT STATION,1.34090149,103.7757467,11.383333333333333,7.119013811798116,9.847344382771828
THOMSON HILLS ESTATE,1.3777715090864884,103.8314997395002,MAYFLOWER MRT STATION,1.371463188,103.8365678,9.000000000000002,7.503784092531771,9.338427274025417
ENG KONG PARK,1.3339681363085492,103.76810526996364,BEAUTY WORLD MRT STATION,1.34090149,103.7757467,11.733333333333334,7.23178553104156,10.077761758166583
10 LERMIT ROAD,1.3114731289806127,103.81883023432816,NAPIER MRT STATION,1.306782234,103.8189568,4.133333333333334,7.800274793904572,7.647553168456992
5A AVON ROAD,1.3051866490861053,103.8895955325524,DAKOTA MRT STATION,1.308547984,103.8890647,-3.65,7.432664611652938,4.139331689322351
672B KLANG LANE,1.309167019737813,103.85295901478447,LITTLE INDIA MRT STATION,1.306800197,103.8496471,4.033333333333333,8.0,7.8979333333333335
SUNRISE VILLA,1.3868974376491032,103.8570031275736,YIO CHU KANG MRT STATION,1.381498825,103.8451707,16.799999999999997,5.603121480800038,10.503497184640029
7 BRIGHT HILL CRESCENT,1.3559650826383771,103.8329286103562,UPPER THOMSON MRT STATION,1.354416434,103.8328985,0.5833333333333339,5.507074444928168,4.490792889275868
TRILIVE,1.361496215813209,103.89171781398812,KOVAN MRT STATION,1.360179171,103.8850649,7.299999999999999,5.712778077591893,7.336022462073515
REGENT VILLE,1.3735961111662691,103.87795499149946,HOUGANG MRT STATION,1.371292266,103.8923805,21.21666666666667,6.086614724269851,12.896808105502163
36 YUNNAN WALK 2,1.338839234961278,103.69092168090508,PIONEER MRT STATION,1.337587011,103.6973216,6.783333333333333,7.597744360902255,8.603328822055138
27A OPAL CRESCENT,1.32793656211043,103.86646920485371,POTONG PASIR MRT STATION,1.331879714,103.8690579,1.4333333333333336,7.216372207780763,6.1004310995579445
39 LOWLAND ROAD,1.3614155951121671,103.88312548358655,KOVAN MRT STATION,1.360179171,103.8850649,2.05,6.542667052357536,5.996733641886029
TANAH MERAH GREEN,1.3302914413093572,103.94355762034292,TANAH MERAH MRT STATION,1.327310982,103.9464517,5.349999999999999,6.948575567358763,7.446660453887011
2 TAI KENG AVENUE,1.3476019057657829,103.885072355605,BARTLEY MRT STATION,1.342501178,103.8801779,11.133333333333336,6.608923076923077,9.345521525654833
12 KAY SIANG ROAD,1.2987097169306423,103.81162342171136,QUEENSTOWN MRT STATION,1.294550852,103.8060772,24.48333333333333,6.975042008500543,14.994366940133768
SERANGOON GARDEN ESTATE,1.3686623837876104,103.86756286920102,LORONG CHUAN MRT STATION,1.351639278,103.8639457,15.616666666666664,7.188382436345183,11.480172615742813
35F EVERITT ROAD,1.313423812592014,103.9029651956686,EUNOS MRT STATION,1.319783549,103.9032258,0.5166666666666693,7.313727326652305,5.574448527988513
72 KEW HEIGHTS,1.3194694528266795,103.95045842119508,BEDOK MRT STATION,1.320401487,103.9571838,13.333333333333334,7.293088318794197,10.964003988368692
VICTORIA PARK VILLAS,1.321538031404467,103.80275718272452,TAN KAH KEE MRT STATION,1.326392241,103.8065482,8.866666666666665,7.542826488645169,9.254127857582802
SEMBAWANG SPRINGS ESTATE,1.4393236399823974,103.82585525880678,CANBERRA MRT STATION,1.443076641,103.8297026,2.6666666666666643,7.142087438423645,6.246136617405583
FLO RESIDENCE,1.3916258404972146,103.91303792085807,CORAL EDGE LRT STATION,1.393909229,103.9125808,2.5666666666666664,8.0,7.352066666666667
WOOLLERTON PARK,1.3170040258323945,103.80946452251438,FARRER ROAD MRT STATION,1.317439152,103.8073792,-4.416666666666666,6.671794871794872,3.06651680911681
ISLAND PARK,1.3643542583703308,103.82952721408084,BRIGHT HILL MRT STATION,1.363846766,103.8338992,6.4,5.277415261917708,6.445532209534167
GRANDEUR 8,1.375362548605478,103.84722072342912,ANG MO KIO MRT STATION,1.369428557,103.8494552,-3.5500000000000007,6.612414816443173,3.3890672455484707
21 EASTWOOD DRIVE,1.3234912336243212,103.95548492642214,BEDOK MRT STATION,1.320401487,103.9571838,10.783333333333331,6.683993244511165,9.537927928942265
28 JALAN KUANG,1.3475333905799964,103.96113176914832,UPPER CHANGI MRT STATION,1.341739774,103.9614728,4.183333333333333,6.573237573237575,6.735323391923394
NIM COLLECTION,1.379721750900732,103.8633533127964,ANG MO KIO MRT STATION,1.369428557,103.8494552,10.849999999999998,7.266404650781954,9.360323720625562
1A MERAGI CLOSE,1.342746409794162,103.9602457413628,UPPER CHANGI MRT STATION,1.341739774,103.9614728,2.3666666666666663,5.638955438428366,5.3844310174093595
10A JALAN ARUAN,1.3129389679756989,103.8427869584637,NEWTON MRT STATION,1.312318922,103.8379846,12.766666666666666,5.788086271824718,9.523638000684697
SENNETT ESTATE,1.3297712495937308,103.87217292541216,POTONG PASIR MRT STATION,1.331879714,103.8690579,4.666666666666666,7.400652846665819,7.569188943999322
KEMBANGAN ESTATE,1.325148787418098,103.90776620779344,KEMBANGAN MRT STATION,1.321038134,103.9129479,6.566666666666667,7.5458111234034,8.440315565389387
55 PAYA LEBAR CRESCENT,1.3497138247455949,103.883470653658,BARTLEY MRT STATION,1.342501178,103.8801779,11.316666666666666,6.202578340387527,9.06058547442248
7 JALAN WAJEK,1.339769255164536,103.78067991174582,KING ALBERT PARK MRT STATION,1.335661613,103.7833991,-1.3666666666666671,6.421818794964027,4.236588369304554
SELETAR HILLS ESTATE,1.3834294526919308,103.875363686559,FERNVALE LRT STATION,1.391885892,103.8763086,4.75,7.652127006566099,7.51650160525288
10 PEARL ISLAND,1.241202455585419,103.83562786542473,HARBOURFRONT MRT STATION,1.265389384,103.8215302,33.06666666666667,,
SELETAR HILLS ESTATE,1.3832880376174688,103.86619702726216,FERNVALE LRT STATION,1.391885892,103.8763086,13.083333333333332,6.8648915918811335,10.20544660683824
55 LIM TAI SEE WALK,1.3236464419958311,103.79324669354394,SIXTH AVENUE MRT STATION,1.330857645,103.7969068,10.633333333333333,5.921282499229267,8.689759332716747
SEMBAWANG HILLS ESTATE,1.3753369077697046,103.83028217747449,MAYFLOWER MRT STATION,1.371463188,103.8365678,8.483333333333334,7.503941499844413,9.164286533208864
32 BUKIT PANJANG RING ROAD,1.3822601045885368,103.7729714785611,BANGKIT LRT STATION,1.38002223,103.7726474,2.033333333333333,5.126621235436359,4.862830321682421
AIRVIEW PARK,1.343106806795488,103.77433366034128,BEAUTY WORLD MRT STATION,1.34090149,103.7757467,0.4666666666666668,7.308156563415284,5.827191917398895
LIRIA TERRACE,1.359982751134501,103.9684637163088,TAMPINES EAST MRT STATION,1.356191483,103.9546345,8.883333333333336,7.249215548155738,8.784105771857925
FABER HILLS,1.3227621322605525,103.75590195612068,CLEMENTI MRT STATION,1.315116253,103.7651915,11.866666666666664,6.158775592672413,9.335687140804595
CALDECOTT HILL ESTATE,1.3390659168183787,103.8322408500062,CALDECOTT MRT STATION,1.337245613,103.8401618,11.816666666666666,7.536568251740703,10.379321268059229
641 CHOA CHU KANG STREET 64,1.3981023511064912,103.75019980627104,YEW TEE MRT STATION,1.397297711,103.7473577,2.45,7.576018917791069,6.8204151342328565
BRENTWOOD,1.297297892524233,103.83981850959384,SOMERSET MRT STATION,1.300264167,103.8390858,4.65,7.433474448140308,7.686179558512247
12 SALLIM ROAD,1.3259217089886313,103.8817578655705,MATTAR MRT STATION,1.326876715,103.8832475,4.700000000000001,7.305695639276179,7.494956511420945
MOUNT FABER PARK,1.268494720005806,103.82331547015586,HARBOURFRONT MRT STATION,1.265389384,103.8215302,1.4499999999999993,6.308101924897443,5.212848136896377
PETAIN ROAD/TYRWHITT ROAD CONSERVATION AREA,1.3121377268366656,103.85824962719865,FARRER PARK MRT STATION,1.3131403,103.8547547,3.166666666666667,8.0,7.538666666666668
28 RECREATION ROAD,1.3525427542554118,103.87468742137172,SERANGOON MRT STATION,1.350633615,103.8727717,1.2166666666666668,5.683644656820156,4.860182392122791
TWIN WATERFALLS,1.4016618762420845,103.89735248399836,SOO TECK LRT STATION,1.405323319,103.8972905,5.916666666666666,7.39404296875,7.996901041666668
LUCKY PARK,1.3295221771587713,103.79405042284064,SIXTH AVENUE MRT STATION,1.330857645,103.7969068,2.9333333333333336,5.870864681026486,5.740825078154523
OEI TIONG HAM PARK,1.3173215928340352,103.79402661638017,HOLLAND VILLAGE MRT STATION,1.312240296,103.7963991,10.016666666666666,7.107212573201862,9.458236725228156
ESTILO,1.30255603260863,103.84729254953234,DHOBY GHAUT MRT STATION,1.298655224,103.8461942,4.199999999999999,6.658507664944524,6.722206131955619
DAISY PARK,1.3451140202862917,103.86667691210026,LORONG CHUAN MRT STATION,1.351639278,103.8639457,8.683333333333335,7.931191615402142,9.567686625655048
null null,1.3501828275195809,103.84583830222734,BISHAN MRT STATION,1.351315801,103.8491403,2.0500000000000007,7.10527239744865,6.310017917958921
CAPITOL PARK,1.3284106450748514,103.81829073704672,BOTANIC GARDENS MRT STATION,1.322113736,103.8149845,-14.833333333333332,7.431175093964968,-0.58748757604098
50 JOO AVENUE,1.3157573627393646,103.85423431467008,FARRER PARK MRT STATION,1.3131403,103.8547547,2.083333333333333,8.0,7.138533333333333
ZEPHYR PARK,1.3377991732668255,103.95213115597984,SIMEI MRT STATION,1.343197079,103.9533772,7.316666666666666,7.726740874967641,8.79645936664078
10 COTSWOLD CLOSE,1.3459884538974172,103.8617104281438,LORONG CHUAN MRT STATION,1.351639278,103.8639457,10.85,7.678987030296817,10.159589624237455
BEDOK RIA,1.327112100082423,103.95212245459231,TANAH MERAH MRT STATION,1.327310982,103.9464517,5.216666666666666,5.647380900002444,6.369971386668622
10B EAST COAST ROAD,1.3025913000151164,103.90289003026128,DAKOTA MRT STATION,1.308547984,103.8890647,15.666666666666668,7.954085348092049,12.197934945140307
96 DUKU ROAD,1.3104985127377276,103.90676816427788,EUNOS MRT STATION,1.319783549,103.9032258,6.366666666666667,6.31047265987025,7.204444794562867
39 POH HUAT ROAD,1.3664179017339817,103.88179042682624,KOVAN MRT STATION,1.360179171,103.8850649,6.9,7.404216444132114,8.457773155305691
ONE TREE HILL COLLECTION,1.3009974944021032,103.82578290991736,ORCHARD MRT STATION,1.302422248,103.8238685,2.55,6.7829034831161925,6.201522786492955
568 BALESTIER ROAD,1.3272645190319885,103.84407001894314,TOA PAYOH MRT STATION,1.332596728,103.8475773,-7.333333333333332,6.250584508113941,1.3485342731578198
AMARA SINGAPORE,1.2746034408350295,103.84327151095096,TANJONG PAGAR MRT STATION,1.276568292,103.8460067,4.7,7.215723873441996,7.552379098753597
65 BELMONT ROAD,1.3182034548927537,103.79885970838592,HOLLAND VILLAGE MRT STATION,1.312240296,103.7963991,11.083333333333334,6.932204241632324,9.743696726639193
PINE GROVE,1.3177485127066249,103.77586645693712,DOVER MRT STATION,1.311405293,103.7786378,7.466666666666669,5.302543803803249,6.795252621769499
BENDEMEER PRIMARY SCHOOL,1.322903553727406,103.8646285300768,BOON KENG MRT STATION,1.319939577,103.8620527,2.416666666666666,7.39898177920686,6.798652090032155
SARACA GARDENS,1.3871199700740235,103.860218383925,YIO CHU KANG MRT STATION,1.381498825,103.8451707,5.583333333333336,7.357830308597797,6.778797580211572
19 LUCKY HEIGHTS,1.3160791140308217,103.93972979546596,TANAH MERAH MRT STATION,1.327310982,103.9464517,2.116666666666667,6.985900895615784,5.704587383159295
17 GLASGOW ROAD,1.361385285274568,103.877713675583,KOVAN MRT STATION,1.360179171,103.8850649,6.966666666666667,7.187529976019184,8.315090647482014
LENTOR VIEW,1.3881362996532751,103.83522389945796,LENTOR MRT STATION,1.38550658,103.8357438,6.083333333333334,7.856667565866379,8.527067386026438
KIMNAN PARK,1.3256291645608052,103.91586813001388,KEMBANGAN MRT STATION,1.321038134,103.9129479,2.616666666666667,7.517835408669601,6.839534993602348
THE CANOPY,1.4243422762901154,103.84856655040548,YISHUN MRT STATION,1.429443085,103.835005,12.066666666666666,7.63743744366044,10.38221662159502
3B DALKEITH ROAD,1.3237954164756467,103.8220330539163,STEVENS MRT STATION,1.320065558,103.8260244,5.983333333333334,6.316422203048606,7.293671095772218
FOH PIN GARDEN,1.3559330874746196,103.88215950500776,KOVAN MRT STATION,1.360179171,103.8850649,4.266666666666668,7.491366826333964,7.52116012773384
PUNGGOL GROVE,1.4020624203107748,103.90543824981457,COVE LRT STATION,1.399281988,103.9059619,1.333333333333333,6.414814814814815,5.526585185185185
CASHEW VILLAS,1.3718878314859344,103.7693853281036,PENDING LRT STATION,1.376135743,103.7712612,5.933333333333334,6.596894409937889,7.497848861283645
THOMSON GARDEN ESTATE,1.3544383203923211,103.84090827161688,MARYMOUNT MRT STATION,1.348707263,103.8394231,5.766666666666667,6.703103388658366,7.5375493775933595
BINJAI PARK,1.3398172453148387,103.7888476804086,KING ALBERT PARK MRT STATION,1.335661613,103.7833991,24.866666666666667,6.261578805290965,14.59612971089944
SOUTH UNION PARK,1.3145086414444185,103.92315823921328,KEMBANGAN MRT STATION,1.321038134,103.9129479,7.366666666666669,7.678348648467368,8.585745585440563
LAKESIDE GROVE,1.3397438968136228,103.71801594570437,LAKESIDE MRT STATION,1.344259115,103.7209491,-0.2333333333333325,7.369416733102066,5.43220005314832
THE GREENWOOD,1.3364961013746552,103.80501750474026,SIXTH AVENUE MRT STATION,1.330857645,103.7969068,13.433333333333335,6.8567157617058685,10.495505942698031
13 JALAN LAYANG LAYANG,1.3441090271070923,103.76734697602988,BEAUTY WORLD MRT STATION,1.34090149,103.7757467,9.333333333333336,5.687083112758073,7.921783624492678
BAN GUAN PARK,1.3237369980470004,103.78688112152705,SIXTH AVENUE MRT STATION,1.330857645,103.7969068,11.633333333333333,7.507687405401098,10.166283257654213
WHITEWATER,1.380193153332831,103.93530700313684,PASIR RIS MRT STATION,1.37300805,103.9492651,11.78333333333334,7.382784195047099,10.042160689371016
HOLLAND VALE,1.307933180890106,103.80511605317066,COMMONWEALTH MRT STATION,1.302501999,103.7982285,8.266666666666666,5.72231593452282,7.484062423479288
HIGHLINE RESIDENCES,1.2839264986898495,103.82957668272472,TIONG BAHRU MRT STATION,1.286102536,103.8274451,4.133333333333334,6.927531837477258,7.007158803315141
FRANKEL ESTATE,1.3170611817039173,103.9161675422452,KEMBANGAN MRT STATION,1.321038134,103.9129479,3.916666666666667,7.565259025184335,7.448673886814135
12A NEO PEE TECK LANE,1.2925708008875705,103.76928991077637,KENT RIDGE MRT STATION,1.293536986,103.7845724,17.316666666666666,7.268608896505475,12.19161698568916
GRACE PARK,1.357960662029838,103.86889355482263,LORONG CHUAN MRT STATION,1.351639278,103.8639457,9.666666666666664,5.876887701199428,8.328176827626208
OPERA ESTATE,1.319229014605196,103.92256973562876,KEMBANGAN MRT STATION,1.321038134,103.9129479,7.533333333333335,7.115064460460866,8.417384901702029
MIRAMAR GARDENS,1.3687643999706047,103.89304301958116,HOUGANG MRT STATION,1.371292266,103.8923805,3.6,6.2137481184144505,6.2891984947315605
TANJONG KATONG PRIMARY SCHOOL,1.3049073545405827,103.900427080738,DAKOTA MRT STATION,1.308547984,103.8890647,11.916666666666666,8.0,10.826466666666667
48 LORONG J TELOK KURAU,1.3134722107336458,103.90891554772084,EUNOS MRT STATION,1.319783549,103.9032258,5.666666666666666,6.4245111078272,7.040075552928427
23 SPRINGSIDE PLACE,1.404695163660742,103.82125613799406,SPRINGLEAF MRT STATION,1.397581061,103.8178569,8.350000000000001,6.442979006594471,8.173983205275578
5 TAY LIAN TECK DRIVE,1.3120301293231635,103.92884707249011,KEMBANGAN MRT STATION,1.321038134,103.9129479,-0.9333333333333372,7.584840265220011,4.606738878842675
79 WILKINSON ROAD,1.3019644219523088,103.88926674308432,DAKOTA MRT STATION,1.308547984,103.8890647,3.833333333333336,7.494842095737944,7.14080700992369
MANDALE HEIGHTS,1.324230921175105,103.8499032265239,NOVENA MRT STATION,1.320440791,103.8438256,8.516666666666666,7.859511641113004,9.468075979557069
33 WOODGROVE AVENUE,1.427857894249766,103.77930115719748,MARSILING MRT STATION,1.432521149,103.7740746,8.95,6.0435465836632325,8.156344368774043
HILLVIEW GARDEN ESTATE,1.3588311166520968,103.76017653592332,HILLVIEW MRT STATION,1.362344868,103.7674183,7.983333333333334,7.402790381125228,8.768165638233517
37 JALAN BELANGKAS,1.3292859553844296,103.88346106471546,MATTAR MRT STATION,1.326876715,103.8832475,2.7666666666666666,7.548664013644115,6.992397877581959
FRANKEL ESTATE,1.3116621623428435,103.91801197490268,KEMBANGAN MRT STATION,1.321038134,103.9129479,9.7,7.955824100120559,9.886659280096447
SAINT ANNE'S WOOD,1.3915930073526823,103.90336347771124,RUMBIA LRT STATION,1.391468495,103.9059736,4.116666666666667,7.365658524759076,7.409593486473929
PALM LODGE,1.3150461381791685,103.88971576723422,PAYA LEBAR MRT STATION,1.31719912,103.8923649,2.8,6.058436890212591,5.857549512170073
30 WAK HASSAN DRIVE,1.45937429097958,103.83820475857688,CANBERRA MRT STATION,1.443076641,103.8297026,23.28333333333333,7.594333258376433,14.84839994003448
108A CARPMAEL ROAD,1.3112226786249808,103.89919735166076,PAYA LEBAR MRT STATION,1.31719912,103.8923649,7.016666666666666,7.104019540168853,8.22608229880175
23 WAREHAM ROAD,1.3077408886076378,103.8930038517293,DAKOTA MRT STATION,1.308547984,103.8890647,4.083333333333333,8.0,7.912933333333333
PARADISE ISLAND,1.2502668721436356,103.8429225595336,HARBOURFRONT MRT STATION,1.265389384,103.8215302,32.58333333333334,6.961211631045996,17.58845473907017
THE WARREN,1.3868863617415494,103.74377287477144,CHOA CHU KANG MRT STATION,1.385363165,103.7443708,3.0000000000000004,7.84411503518,7.371292028144
23 RAMBUTAN ROAD,1.3132421566577888,103.90527476307632,EUNOS MRT STATION,1.319783549,103.9032258,3.6999999999999975,6.540648095508812,6.3663184764070495
THOMSON RIDGE,1.3524438210961651,103.8323940086308,UPPER THOMSON MRT STATION,1.354416434,103.8328985,2.5166666666666666,6.620057170080991,6.22011240273146
SEMBAWANG HILLS ESTATE,1.3740216994540977,103.82762211997708,MAYFLOWER MRT STATION,1.371463188,103.8365678,11.816666666666666,6.8655907610305,9.893339275491066
GOLDHILL GARDENS,1.3202371946369416,103.83307713577526,STEVENS MRT STATION,1.320065558,103.8260244,15.416666666666668,6.0207820032137125,10.770292269237638
45 HERTFORD ROAD,1.31372010487651,103.84892451897704,FARRER PARK MRT STATION,1.3131403,103.8547547,5.749999999999999,7.796232673853809,8.349986139083047
SERANGOON GARDEN ESTATE,1.3618011109806107,103.86078834550544,LORONG CHUAN MRT STATION,1.351639278,103.8639457,12.016666666666666,6.848117973692596,9.924961045620744
LI TONG GARDENS,1.318420617211312,103.91291415009496,KEMBANGAN MRT STATION,1.321038134,103.9129479,-1.25,7.344372596994058,5.181498077595246
WHITEVILLAS ROW,1.2861217723438687,103.77991370253469,HAW PAR VILLA MRT STATION,1.281956887,103.781989,4.9,5.229547565644896,6.0234380525159175
INZ RESIDENCE,1.3744179286760632,103.73957286245133,SOUTH VIEW LRT STATION,1.380298287,103.7452918,5.9833333333333325,6.569381552012903,7.2202385749436555
ROSEWOOD SUITES,1.4292205257967927,103.78599663782052,WOODLANDS SOUTH MRT STATION,1.427488114,103.7927299,11.750000000000004,5.509990939005197,8.80919275120416
8 DALVEY ESTATE,1.3158169542534617,103.8211840605706,STEVENS MRT STATION,1.320065558,103.8260244,6.466666666666667,6.65792418860396,7.740206017549836
SIEW LIM PARK,1.3297929452757131,103.94836191117152,TANAH MERAH MRT STATION,1.327310982,103.9464517,1.416666666666667,6.089217933781803,5.213041013692109
152 KEW DRIVE,1.3218034827716976,103.94862114456328,TANAH MERAH MRT STATION,1.327310982,103.9464517,-0.283333333333335,6.696022401248593,4.616084587665541
CRESCENT GIRLS' SCHOOL,1.2938450255177418,103.81826145138216,REDHILL MRT STATION,1.289634534,103.816741,5.483333333333333,6.704069561102567,7.324788982215387
14 QUEEN'S ROAD,1.322178528249936,103.81041959600968,BOTANIC GARDENS MRT STATION,1.322113736,103.8149845,-13.766666666666664,6.967023545188734,-0.43493886111715524
HOLLAND GARDENS,1.3178397189570332,103.78181847612112,DOVER MRT STATION,1.311405293,103.7786378,3.000000000000004,5.122901383129875,4.699854845793189
10G LEITH ROAD,1.361788339804742,103.87510585557666,KOVAN MRT STATION,1.360179171,103.8850649,9.366666666666667,7.246264811952602,9.252478516228749
CHERRYHILL,1.3507052601623812,103.87783969440116,SERANGOON MRT STATION,1.350633615,103.8727717,5.433333333333334,6.237395246599809,7.0222495306131805
15 LORONG PAYA LEBAR,1.3393821897548932,103.88503471954115,TAI SENG MRT STATION,1.335145642,103.8883361,7.483333333333333,6.870213690242239,8.353104285527126
SEMBAWANG HILLS ESTATE,1.3731407585693836,103.83171084194308,MAYFLOWER MRT STATION,1.371463188,103.8365678,7.7,7.608690504380771,8.942552403504617
SPRING RESIDENCES,1.3160194176441269,103.8304236231462,STEVENS MRT STATION,1.320065558,103.8260244,6.533333333333334,6.193218514531755,7.285708144958738
100B ENG NEO AVENUE,1.3349498403627411,103.80022829300584,SIXTH AVENUE MRT STATION,1.330857645,103.7969068,9.4,6.5828614946524935,8.858489195721996
SELETAR HILLS ESTATE,1.3871223906836447,103.8669460348608,FERNVALE LRT STATION,1.391885892,103.8763086,10.900000000000002,6.707703566100931,9.303362852880745
36 LENGKONG DUA,1.3260256805286963,103.9124689604731,KEMBANGAN MRT STATION,1.321038134,103.9129479,3.383333333333333,7.282020953024671,6.96695009575307
9 LORONG SARINA,1.3184276879927557,103.90719031117943,EUNOS MRT STATION,1.319783549,103.9032258,-1.7166666666666668,7.493210928481117,4.988102076118228
WOODLANDS PARK,1.416601020587262,103.75936800711666,KRANJI MRT STATION,1.425086981,103.7621375,4.133333333333336,5.82520837970864,5.694252593307117
56 JALAN SENYUM,1.3232635413132667,103.9144924273122,KEMBANGAN MRT STATION,1.321038134,103.9129479,2.4333333333333336,7.448327322472329,6.839395191311197
63A JALAN LIM TAI SEE,1.3213040548093986,103.79203541849168,HOLLAND VILLAGE MRT STATION,1.312240296,103.7963991,15.433333333333334,7.200209076817706,11.5523005947875
BRADDELL HEIGHTS ESTATE,1.3478599940641125,103.86470096502856,LORONG CHUAN MRT STATION,1.351639278,103.8639457,8.283333333333335,7.543288714233084,9.100764304719801
THOMSON HILLS ESTATE,1.3806291442438563,103.83277097403868,LENTOR MRT STATION,1.38550658,103.8357438,4.616666666666666,6.760945757997218,7.080823273064442
EAST VIEW GARDEN,1.3449626664098226,103.96153368099714,UPPER CHANGI MRT STATION,1.341739774,103.9614728,1.6166666666666665,5.668982553651381,5.066652709587772
LAKEHOLMZ,1.3429906305323671,103.71682839084389,LAKESIDE MRT STATION,1.344259115,103.7209491,6.283333333333333,5.023772241992882,6.436151126927639
BELGRAVIA VILLAS,1.380342877426117,103.8661956034572,FERNVALE LRT STATION,1.391885892,103.8763086,15.866666666666667,6.882463094919624,11.316437142602368
52C WAK HASSAN DRIVE,1.4609991524931307,103.83940653177515,CANBERRA MRT STATION,1.443076641,103.8297026,25.516666666666676,7.54255456066484,15.627310315198542
BELLE VUE RESIDENCES,1.2969982183665063,103.84211580215772,DHOBY GHAUT MRT STATION,1.298655224,103.8461942,6.9,6.174286830793278,7.398829464634623
MANDARIN PARK,1.345119307274088,103.77164870485284,BEAUTY WORLD MRT STATION,1.34090149,103.7757467,4.15,7.308461201227531,7.214968960982026
90 SENNETT AVENUE,1.3189270147174623,103.93897006214624,TANAH MERAH MRT STATION,1.327310982,103.9464517,-3.383333333333333,6.969487315948199,3.4414565194252265
38 CEYLON ROAD,1.3063466700950923,103.90254174009038,EUNOS MRT STATION,1.319783549,103.9032258,8.533333333333335,7.445403168836411,8.735255868402463
17J JALAN HOCK CHYE,1.3598423712112435,103.88989767417448,KOVAN MRT STATION,1.360179171,103.8850649,6.299999999999999,5.375667111407605,6.684133689126083
42 JALAN MERLIMAU,1.3242605134811591,103.84008451823824,NOVENA MRT STATION,1.320440791,103.8438256,3.9,6.562048162736201,6.593238530188961
CHELSEA VILLAGE,1.278250488759114,103.78999488180052,PASIR PANJANG MRT STATION,1.276213522,103.7913503,1.6333333333333329,7.088197665120743,6.035291465429928
PAVILION PARK,1.3692343810365943,103.75214076080329,TECK WHYE LRT STATION,1.376684679,103.7537122,7.266666666666666,5.770345149876494,7.202742786567862
FABER HILLS,1.3205648683556352,103.75685324426954,CLEMENTI MRT STATION,1.315116253,103.7651915,11.4,6.00390625,9.070125
SOO CHOW GARDEN,1.3535563028820148,103.83048472176228,UPPER THOMSON MRT STATION,1.354416434,103.8328985,1.5,6.968302304657762,6.00444184372621
2A JALAN MELOR,1.331559754032741,103.88395292261411,MATTAR MRT STATION,1.326876715,103.8832475,4.366666666666667,7.603471098690983,7.621043545619454
118 COVE DRIVE,1.2389458633314587,103.83281169946804,HARBOURFRONT MRT STATION,1.265389384,103.8215302,18.883333333333333,,
SPRINGLEAF GARDEN,1.39953272168546,103.82402237229014,SPRINGLEAF MRT STATION,1.397581061,103.8178569,7.216666666666666,7.727353727353727,8.87014964854965
THE RIVERINA,1.3803973900022246,103.9462133598969,PASIR RIS MRT STATION,1.37300805,103.9492651,4.5500000000000025,7.722426707163264,7.512341365730613
CORONATION VILLAGE,1.3231672930657228,103.8043823664824,TAN KAH KEE MRT STATION,1.326392241,103.8065482,4.466666666666667,7.427919856654179,7.49240255199001
SOUTH UNION PARK,1.316171619940868,103.92540339938851,KEMBANGAN MRT STATION,1.321038134,103.9129479,8.433333333333334,7.806265231797147,9.02094551877105
40 CHUAN PLACE,1.361233026417609,103.86771900957037,LORONG CHUAN MRT STATION,1.351639278,103.8639457,11.633333333333336,6.368571701173553,9.422990694272178
25A PONGGOL TWENTY-FOURTH AVENUE,1.4188870676491372,103.90915565533363,PUNGGOL POINT LRT STATION,1.41684852,103.9066508,3.3166666666666678,7.435886402753873,7.095175788869765
120S TANAH MERAH BESAR LANE,1.359280572761867,103.97571765365927,CHANGI AIRPORT MRT STATION,1.357478974,103.9878836,40.23333333333334,8.0,21.452333333333335
4 STARLIGHT ROAD,1.313924550998134,103.85341638537416,FARRER PARK MRT STATION,1.3131403,103.8547547,1.95,8.0,7.019000000000001
SEMBAWANG SPRINGS ESTATE,1.4384310054882588,103.8286479234576,CANBERRA MRT STATION,1.443076641,103.8297026,2.216666666666669,7.211635190281864,6.015174818892159
WESTVILLE,1.353326825327722,103.69844602079726,PIONEER MRT STATION,1.337587011,103.6973216,17.666666666666668,7.378458414417463,12.485033398200638
LUCKY HILL,1.3251158457495726,103.94894253461744,TANAH MERAH MRT STATION,1.327310982,103.9464517,6.183333333333332,5.813168112746274,6.8302678235303524
THE SHAUGHNESSY,1.4170375705616498,103.84668844197296,KHATIB MRT STATION,1.41738337,103.8329799,12.833333333333336,6.875707488104183,10.157899323816682
86A FERNHILL CLOSE,1.3119085296076347,103.8230110771064,NAPIER MRT STATION,1.306782234,103.8189568,10.283333333333337,6.926429224982208,9.203076713319101
107 HUA GUAN AVENUE,1.341800561219109,103.7854322468049,KING ALBERT PARK MRT STATION,1.335661613,103.7833991,11.083333333333332,6.458289237564993,9.328764723385326
29 LORONG 32 GEYLANG,1.313017677064032,103.8872142357648,DAKOTA MRT STATION,1.308547984,103.8890647,4.966666666666667,6.867820035287199,7.316522694896427
PARRY PARK,1.366668287414238,103.87806867339744,KOVAN MRT STATION,1.360179171,103.8850649,9.816666666666666,7.448021124768163,9.595083566481197
390B PASIR PANJANG ROAD,1.291585950421792,103.7722801705502,KENT RIDGE MRT STATION,1.293536986,103.7845724,14.633333333333333,7.522957461174881,11.413409806758626
HAZEL PARK TERRACE,1.3718184873155217,103.76559019138,CASHEW MRT STATION,1.369815449,103.7644392,3.2500000000000004,5.9212527654867255,5.92220221238938
14 PAYA LEBAR CRESCENT,1.3496440184552208,103.88148552473444,BARTLEY MRT STATION,1.342501178,103.8801779,9.68333333333333,5.921397379912663,8.234651237263463
WOODHAVEN,1.4303957689944466,103.7836700776438,WOODLANDS MRT STATION,1.436057617,103.7879388,6.200000000000003,7.0397996273557535,7.770839701884604
VILLA VERDE,1.3912073791833897,103.75057972288384,YEW TEE MRT STATION,1.397297711,103.7473577,9.216666666666669,7.346921371311616,9.24020376371596
GREEN SPRINGS,1.3870193423917911,103.8764298729307,FERNVALE LRT STATION,1.391885892,103.8763086,-4.783333333333335,7.567817519595832,3.5903206823433313
10 CHATSWORTH PARK,1.2974406444129436,103.82108972058792,ORCHARD MRT STATION,1.302422248,103.8238685,11.633333333333333,7.243386243386244,10.097442328042328
29 LORONG KISMIS,1.337736450101481,103.77009659015964,BEAUTY WORLD MRT STATION,1.34090149,103.7757467,7.3,6.806496612196094,8.074597289756875
LE CONNEY PARK,1.3125210953871669,103.91212153606556,KEMBANGAN MRT STATION,1.321038134,103.9129479,3.633333333333333,7.947070506454817,7.300989738497187
BEAUTY GARDEN,1.3921769599145275,103.9008110624932,COMPASSVALE LRT STATION,1.394493045,103.9004925,2.8666666666666663,6.6397245011647925,6.319846267598501
SENNETT ESTATE,1.332510374860398,103.87132045382036,POTONG PASIR MRT STATION,1.331879714,103.8690579,1.1833333333333331,7.243780739895929,6.1597579252500765
CORAL PARK,1.353378528049201,103.84331325666524,MARYMOUNT MRT STATION,1.348707263,103.8394231,8.283333333333331,7.668687401159725,9.261683254261113
PRESIDENT GARDENS,1.3863526163980389,103.8374104206586,LENTOR MRT STATION,1.38550658,103.8357438,1.9666666666666668,8.0,7.134466666666667
57 KHEAM HOCK ROAD,1.3271135413671489,103.82057336781185,BOTANIC GARDENS MRT STATION,1.322113736,103.8149845,-12.68333333333333,7.296132699655205,0.250672257944275
1 WALTON ROAD,1.300195781686011,103.89307545636744,DAKOTA MRT STATION,1.308547984,103.8890647,8.433333333333334,8.0,9.467133333333333
MOUNT SINAI,1.3160006937633266,103.78012181557916,DOVER MRT STATION,1.311405293,103.7786378,-5.383333333333331,5.639842287070099,1.7591736489897083
CABANA,1.3883674089435187,103.85576072032492,YIO CHU KANG MRT STATION,1.381498825,103.8451707,12.816666666666665,5.384321377886724,8.787923768976045
112 BUKIT TERESA ROAD,1.276109748439469,103.82543108590076,TIONG BAHRU MRT STATION,1.286102536,103.8274451,0.9000000000000021,6.220500595947558,4.402252414664621
HILLCREST PARK,1.3350222894908823,103.80718740491612,TAN KAH KEE MRT STATION,1.326392241,103.8065482,10.583333333333332,6.526165931973723,8.859925950955674
26 LORONG 104 CHANGI,1.3156612153560117,103.90218049961896,EUNOS MRT STATION,1.319783549,103.9032258,-0.8666666666666671,6.857542420287151,4.806367269563054
CHANGI HEIGHTS,1.3631127480320235,103.97165033861512,CHANGI AIRPORT MRT STATION,1.357478974,103.9878836,29.46666666666667,7.974477927395021,17.136049008582685
SERANGOON GARDEN ESTATE,1.3667802610044684,103.86583214385008,LORONG CHUAN MRT STATION,1.351639278,103.8639457,13.716666666666663,7.165127058746178,10.756768313663608
114 JALAN CHEMPAKA KUNING,1.332759156205627,103.9486514749848,TANAH MERAH MRT STATION,1.327310982,103.9464517,6.616666666666666,7.566555218890397,8.480510841778985
15 HOLLAND HILL,1.3096196907901163,103.80044016191984,HOLLAND VILLAGE MRT STATION,1.312240296,103.7963991,6.133333333333334,5.935841278021128,6.940581234977289
20 JUBILEE ROAD,1.3057541921742006,103.76601023755128,CLEMENTI MRT STATION,1.315116253,103.7651915,-32.66666666666667,6.741952866791206,-9.348304373233706
FUYONG ESTATE,1.358665686256995,103.76814331189205,HILLVIEW MRT STATION,1.362344868,103.7674183,0.2666666666666666,7.357227289961416,5.873341216703467
WATERFRONT WAVES,1.337851571386611,103.9294147987098,BEDOK RESERVOIR MRT STATION,1.33660783,103.9322346,-0.5,6.118749330763466,4.355999464610774
TAI HWAN GARDEN,1.3575748576528897,103.86156738337507,LORONG CHUAN MRT STATION,1.351639278,103.8639457,7.899999999999999,6.388949010121588,8.03355920809727
11A JALAN HAJI SALAM,1.320436712092076,103.95307713428257,BEDOK MRT STATION,1.320401487,103.9571838,10.25,7.264382016436589,9.798705613149274
HORIZON GREEN,1.3757908319430627,103.83276481718168,MAYFLOWER MRT STATION,1.371463188,103.8365678,5.95,7.511200081086559,8.148960064869248
97 YUNNAN DRIVE 3,1.3371371077831185,103.69153200138288,PIONEER MRT STATION,1.337587011,103.6973216,6.066666666666666,7.93550846165574,8.58707343599126
JALAN KAYU ESTATE,1.3964939890159036,103.87337971932882,THANGGAM LRT STATION,1.397318156,103.8756352,4.699999999999999,6.983490566037736,7.327992452830189
HILLVIEW GARDEN ESTATE,1.359690263530062,103.76208564928636,HILLVIEW MRT STATION,1.362344868,103.7674183,5.983333333333334,7.294519630175534,8.03554903747376
TAI KENG VILLAS,1.3471210956035349,103.88205335451408,BARTLEY MRT STATION,1.342501178,103.8801779,9.116666666666667,5.853875398577386,8.036766985528576
SHAMROCK PARK,1.3254400782660856,103.79481947845022,SIXTH AVENUE MRT STATION,1.330857645,103.7969068,6.933333333333333,5.549500577563363,7.006333795384024
PEOPLE'S GARDEN,1.3684161557458805,103.88896595458208,HOUGANG MRT STATION,1.371292266,103.8923805,1.583333333333334,6.347232961449243,5.475119702492728
HOCK SWEE HILL,1.386865368681909,103.86405185133285,FERNVALE LRT STATION,1.391885892,103.8763086,16.21666666666667,6.527408761847899,11.169393676144988
113 HIGHLAND ROAD,1.3598625244205305,103.8809148997139,KOVAN MRT STATION,1.360179171,103.8850649,3.6000000000000005,6.904623858530223,6.838699086824179
260 OCEAN DRIVE,1.2483307630713198,103.84490677628352,TANJONG PAGAR MRT STATION,1.276568292,103.8460067,55.66666666666667,,
RIZ HAVEN,1.3796066813455992,103.9628126942197,PASIR RIS MRT STATION,1.37300805,103.9492651,13.633333333333333,7.962693958402113,11.419688500055024
MONTROSE TERRACE,1.321831180299595,103.83629017905425,NOVENA MRT STATION,1.320440791,103.8438256,6.050000000000001,6.772476289463428,7.548381031570743
ONE-TWO-SIX CAIRNHILL ART CENTRE,1.3078093119175944,103.837652620218,NEWTON MRT STATION,1.312318922,103.8379846,9.033333333333331,5.544246587724849,7.774593666739135
40 LORONG 6 GEYLANG,1.310262916084899,103.87658068445631,KALLANG MRT STATION,1.31148891,103.8713865,7.683333333333334,7.840023847376789,9.173352411234765
HIGHGATE PARK,1.3401386790596097,103.7659975397597,BEAUTY WORLD MRT STATION,1.34090149,103.7757467,9.849999999999998,7.108402900493572,9.272122320394859
HARVEY VIEW,1.339998747891644,103.95457213826376,SIMEI MRT STATION,1.343197079,103.9533772,-1.466666666666666,7.686746987951807,5.1995309236947795
THE INGLEWOOD,1.361442640852855,103.82967835725042,BRIGHT HILL MRT STATION,1.363846766,103.8338992,5.916666666666667,5.686339248865044,6.700338065758702
GOODLINK PARK,1.427091447215155,103.82518294734936,YISHUN MRT STATION,1.429443085,103.835005,9.033333333333331,6.178133635655071,8.12964024185739
MASJID TAHA,1.3134996836578263,103.89809548103662,PAYA LEBAR MRT STATION,1.31719912,103.8923649,5.15,7.200549580707822,7.611439664566258
THE MORNINGTON,1.3259415093834075,103.86392200132067,BOON KENG MRT STATION,1.319939577,103.8620527,3.8500000000000014,7.460067838421216,7.278654270736974
SEASIDE PARK,1.3095197416801578,103.92010624929908,KEMBANGAN MRT STATION,1.321038134,103.9129479,11.166666666666666,7.932791824970524,10.419700126643086
BLISS VILLE,1.3236372509573011,103.9090830960463,KEMBANGAN MRT STATION,1.321038134,103.9129479,3.6000000000000005,7.397531521932161,7.16362521754573
CHURCH OF SAINT BERNADETTE,1.2951679984053348,103.8305613678419,GREAT WORLD MRT STATION,1.293316457,103.8339066,4.433333333333334,6.388132164531355,6.622639064958419
WATTEN ESTATE,1.3286446152379805,103.80813072047556,TAN KAH KEE MRT STATION,1.326392241,103.8065482,5.383333333333335,6.26856278366112,6.73218356026223
CLEMENTI GREEN,1.3234538562732356,103.77351745930972,CLEMENTI MRT STATION,1.315116253,103.7651915,10.8,6.276609368774546,8.931087495019638
WESTLAKE GARDENS,1.3440071633447268,103.83740002864091,MARYMOUNT MRT STATION,1.348707263,103.8394231,3.716666666666666,5.74603021845828,5.802690841433291
THE INTERLACE,1.2823633652133413,103.80281235602114,LABRADOR PARK MRT STATION,1.272227051,103.8027445,12.9,6.906120175458955,10.444296140367165
LUXUS HILLS,1.3806794076128055,103.874239174585,FERNVALE LRT STATION,1.391885892,103.8763086,10.233333333333334,7.362616567760687,9.317826587541884
SUMMER GREEN,1.3269941725611707,103.84988734898884,TOA PAYOH MRT STATION,1.332596728,103.8475773,-7.549999999999997,6.610195308194127,1.3755562465553028
FORESTVILLE,1.4320230193468555,103.79948334428713,WOODLANDS SOUTH MRT STATION,1.427488114,103.7927299,12.116666666666667,7.091523605150214,10.314485550786838
KIM LIN PARK,1.3016003809556675,103.82834857265608,ORCHARD MRT STATION,1.302422248,103.8238685,5.783333333333333,6.915412865774197,7.581063625952692
36 JALAN RINDU,1.3455592283644315,103.8771826174814,BARTLEY MRT STATION,1.342501178,103.8801779,7.050000000000001,6.934753891218196,8.259203112974557
4 JALAN TANAH PUTEH,1.3154968296676028,103.93029436838448,KEMBANGAN MRT STATION,1.321038134,103.9129479,-0.5166666666666657,7.5450648570909955,4.758985219006131
177 SPRINGSIDE AVENUE,1.4059719372187545,103.8231157500477,SPRINGLEAF MRT STATION,1.397581061,103.8178569,9.316666666666668,6.559491828967989,8.62546012984106
SERANGOON GARDEN ESTATE,1.363654845210467,103.87149586213847,SERANGOON MRT STATION,1.350633615,103.8727717,11.550000000000002,5.768422023425252,8.910337618740204
BUKIT LOYANG ESTATE,1.3619773682842653,103.96808539671063,TAMPINES EAST MRT STATION,1.356191483,103.9546345,10.833333333333332,7.224118012974318,9.616827743712788
MAYFLOWER GARDENS,1.3720153013011451,103.84006504021464,MAYFLOWER MRT STATION,1.371463188,103.8365678,4.366666666666667,6.652868969454753,6.84876184223047
ELIAS TERRACE,1.372592589354113,103.9418354495314,PASIR RIS MRT STATION,1.37300805,103.9492651,4.266666666666666,7.548369720206597,7.289962442831944
TREVOSE PARK,1.3246167988332689,103.82551579449722,STEVENS MRT STATION,1.320065558,103.8260244,4.733333333333333,6.405753082008219,6.873335798939909
EWART PARK,1.3256099474291432,103.7839705880787,KING ALBERT PARK MRT STATION,1.335661613,103.7833991,20.05,7.995756818556848,14.076605454845481
